{"type":"FeatureCollection","crs":{"type":"name","properties":{"name":"EPSG:6539"}},"features":[{"type":"Feature","id":1,"geometry":{"type":"Point","coordinates":[982110.74376788735,195648.25999997556]},"properties":{"OBJECTID":1,"FacilityName":"Engine 4/Ladder 15","FacilityAddress":"42 South Street","Borough":"Manhattan","Postcode":10005,"Latitude":40.703693999999999,"Longitude":-74.007717,"Community_Board":101,"Community_Council":1,"Census_Tract":7,"BIN":1000867,"BBL":1000350001,"NTA":"Battery Park City-Lower Manhattan"}},{"type":"Feature","id":2,"geometry":{"type":"Point","coordinates":[982754.69490779936,197935.1113974005]},"properties":{"OBJECTID":2,"FacilityName":"Engine 6","FacilityAddress":"49 Beekman Street","Borough":"Manhattan","Postcode":10038,"Latitude":40.709971000000003,"Longitude":-74.005394999999993,"Community_Board":101,"Community_Council":1,"Census_Tract":1501,"BIN":1001287,"BBL":1000930030,"NTA":"Battery Park City-Lower Manhattan"}},{"type":"Feature","id":3,"geometry":{"type":"Point","coordinates":[982503.93425446749,199890.85289272666]},"properties":{"OBJECTID":3,"FacilityName":"Manhattan Borough Command/Battalion 1/Engine 7/Ladder 1","FacilityAddress":"100 Duane Street","Borough":"Manhattan","Postcode":10007,"Latitude":40.715339,"Longitude":-74.006299999999996,"Community_Board":101,"Community_Council":1,"Census_Tract":33,"BIN":1001647,"BBL":1001500025,"NTA":"SoHo-TriBeCa-Civic Center-Little Italy"}},{"type":"Feature","id":4,"geometry":{"type":"Point","coordinates":[982415.34125579894,201433.79928189516]},"properties":{"OBJECTID":4,"FacilityName":"Ladder 8","FacilityAddress":"14 N. Moore Street","Borough":"Manhattan","Postcode":10013,"Latitude":40.719574000000001,"Longitude":-74.006619999999998,"Community_Board":101,"Community_Council":1,"Census_Tract":33,"BIN":1002150,"BBL":1001890035,"NTA":"SoHo-TriBeCa-Civic Center-Little Italy"}},{"type":"Feature","id":5,"geometry":{"type":"Point","coordinates":[986236.93597480655,199916.00999464095]},"properties":{"OBJECTID":5,"FacilityName":"Engine 9/Ladder 6","FacilityAddress":"75 Canal Street","Borough":"Manhattan","Postcode":10002,"Latitude":40.715407999999996,"Longitude":-73.992834000000002,"Community_Board":103,"Community_Council":1,"Census_Tract":16,"BIN":1003898,"BBL":1003000030,"NTA":"Chinatown"}},{"type":"Feature","id":6,"geometry":{"type":"Point","coordinates":[988706.03602346778,200291.96232672036]},"properties":{"OBJECTID":6,"FacilityName":"Battalion 4/Engine 15/Ladder 18","FacilityAddress":"25 Pitt Street","Borough":"Manhattan","Postcode":10002,"Latitude":40.716439000000001,"Longitude":-73.983926999999994,"Community_Board":103,"Community_Council":1,"Census_Tract":12,"BIN":1004078,"BBL":1003420060,"NTA":"Lower East Side"}},{"type":"Feature","id":7,"geometry":{"type":"Point","coordinates":[989094.01523438096,202273.99477997422]},"properties":{"OBJECTID":7,"FacilityName":"Engine 28/Ladder 11","FacilityAddress":"222 East 2 Street","Borough":"Manhattan","Postcode":10009,"Latitude":40.721879000000001,"Longitude":-73.982525999999993,"Community_Board":103,"Community_Council":2,"Census_Tract":2202,"BIN":1004608,"BBL":1003850058,"NTA":"Lower East Side"}},{"type":"Feature","id":8,"geometry":{"type":"Point","coordinates":[988849.14761388302,205776.9894143939]},"properties":{"OBJECTID":8,"FacilityName":"Engine 5","FacilityAddress":"340 East 14 Street","Borough":"Manhattan","Postcode":10003,"Latitude":40.731493999999998,"Longitude":-73.983407,"Community_Board":103,"Community_Council":2,"Census_Tract":40,"BIN":1006520,"BBL":1004550028,"NTA":"East Village"}},{"type":"Feature","id":9,"geometry":{"type":"Point","coordinates":[985200.86849313974,202691.41782964766]},"properties":{"OBJECTID":9,"FacilityName":"Division 1/Ladder 20","FacilityAddress":"253 Lafayette Street","Borough":"Manhattan","Postcode":10012,"Latitude":40.723025999999997,"Longitude":-73.996571000000003,"Community_Board":102,"Community_Council":1,"Census_Tract":43,"BIN":1007523,"BBL":1004950007,"NTA":"SoHo-TriBeCa-Civic Center-Little Italy"}},{"type":"Feature","id":10,"geometry":{"type":"Point","coordinates":[986321.95877063274,204134.23777864873]},"properties":{"OBJECTID":10,"FacilityName":"Engine 33/Ladder 9","FacilityAddress":"42 Great Jones Street","Borough":"Manhattan","Postcode":10012,"Latitude":40.726985999999997,"Longitude":-73.992525999999998,"Community_Board":102,"Community_Council":1,"Census_Tract":5502,"BIN":1008526,"BBL":1005310049,"NTA":"West Village"}},{"type":"Feature","id":11,"geometry":{"type":"Point","coordinates":[987176.20115663111,206359.29599255323]},"properties":{"OBJECTID":11,"FacilityName":"Battalion 6/Ladder 3","FacilityAddress":"108 East 13 Street","Borough":"Manhattan","Postcode":10003,"Latitude":40.733092999999997,"Longitude":-73.989442999999994,"Community_Board":103,"Community_Council":2,"Census_Tract":42,"BIN":1009010,"BBL":1005580011,"NTA":"East Village"}},{"type":"Feature","id":12,"geometry":{"type":"Point","coordinates":[984144.81187821925,206878.29200181365]},"properties":{"OBJECTID":12,"FacilityName":"Squad 18","FacilityAddress":"132 West 10 Street","Borough":"Manhattan","Postcode":10014,"Latitude":40.734518000000001,"Longitude":-74.000381000000004,"Community_Board":102,"Community_Council":3,"Census_Tract":71,"BIN":1010686,"BBL":1006100051,"NTA":"West Village"}},{"type":"Feature","id":13,"geometry":{"type":"Point","coordinates":[985228.09481664002,214920.93831805885]},"properties":{"OBJECTID":13,"FacilityName":"Engine 34/Ladder 21","FacilityAddress":"440 West 38th Street","Borough":"Manhattan","Postcode":10018,"Latitude":40.756593000000002,"Longitude":-73.996471,"Community_Board":104,"Community_Council":3,"Census_Tract":111,"BIN":1012982,"BBL":1007350061,"NTA":"Hudson Yards-Chelsea-Flatiron-Union Square"}},{"type":"Feature","id":14,"geometry":{"type":"Point","coordinates":[986916.8260192275,213651.00253772736]},"properties":{"OBJECTID":14,"FacilityName":"Engine 26","FacilityAddress":"220 West 37 Street","Borough":"Manhattan","Postcode":10018,"Latitude":40.753107,"Longitude":-73.990375999999998,"Community_Board":105,"Community_Council":3,"Census_Tract":109,"BIN":1014447,"BBL":1007860061,"NTA":"Midtown-Midtown South"}},{"type":"Feature","id":15,"geometry":{"type":"Point","coordinates":[985118.30796271563,209311.3130543977]},"properties":{"OBJECTID":15,"FacilityName":"Battalion 7/Engine 3/Ladder 12","FacilityAddress":"150 West 19 Street","Borough":"Manhattan","Postcode":10011,"Latitude":40.741196000000002,"Longitude":-73.996868000000006,"Community_Board":104,"Community_Council":3,"Census_Tract":87,"BIN":1014724,"BBL":1007940066,"NTA":"Hudson Yards-Chelsea-Flatiron-Union Square"}},{"type":"Feature","id":16,"geometry":{"type":"Point","coordinates":[986692.02299113572,211963.02789531648]},"properties":{"OBJECTID":16,"FacilityName":"Engine 1/Ladder 24","FacilityAddress":"142 West 31 Street","Borough":"Manhattan","Postcode":10001,"Latitude":40.748474000000002,"Longitude":-73.991187999999994,"Community_Board":105,"Community_Council":3,"Census_Tract":101,"BIN":1015173,"BBL":1008060066,"NTA":"Midtown-Midtown South"}},{"type":"Feature","id":17,"geometry":{"type":"Point","coordinates":[986734.80833864212,208128.07559147477]},"properties":{"OBJECTID":17,"FacilityName":"Engine 14","FacilityAddress":"14 East 18 Street","Borough":"Manhattan","Postcode":10003,"Latitude":40.737948000000003,"Longitude":-73.991034999999997,"Community_Board":105,"Community_Council":2,"Census_Tract":52,"BIN":1016141,"BBL":1008460066,"NTA":"Hudson Yards-Chelsea-Flatiron-Union Square"}},{"type":"Feature","id":18,"geometry":{"type":"Point","coordinates":[990102.91019822657,209486.88225705922]},"properties":{"OBJECTID":18,"FacilityName":"Engine 16/Ladder 7","FacilityAddress":"234 East 29 Street","Borough":"Manhattan","Postcode":10016,"Latitude":40.741675999999998,"Longitude":-73.978880000000004,"Community_Board":106,"Community_Council":2,"Census_Tract":66,"BIN":1019903,"BBL":1009090035,"NTA":"Murray Hill-Kips Bay"}},{"type":"Feature","id":19,"geometry":{"type":"Point","coordinates":[991446.96033163369,212025.17967389524]},"properties":{"OBJECTID":19,"FacilityName":"Engine 21","FacilityAddress":"238 East 40 Street","Borough":"Manhattan","Postcode":10016,"Latitude":40.748641999999997,"Longitude":-73.974027000000007,"Community_Board":106,"Community_Council":4,"Census_Tract":88,"BIN":1020385,"BBL":1009200042,"NTA":"Turtle Bay-East Midtown"}},{"type":"Feature","id":20,"geometry":{"type":"Point","coordinates":[987909.11340472102,216424.79521848261]},"properties":{"OBJECTID":20,"FacilityName":"Battalion 9/Engine 54/Ladder 4","FacilityAddress":"782 Eighth Avenue","Borough":"Manhattan","Postcode":10036,"Latitude":40.760719999999999,"Longitude":-73.986793000000006,"Community_Board":105,"Community_Council":3,"Census_Tract":125,"BIN":1024767,"BBL":1010190061,"NTA":"Midtown-Midtown South"}},{"type":"Feature","id":21,"geometry":{"type":"Point","coordinates":[989688.53143380582,218603.47491621971]},"properties":{"OBJECTID":21,"FacilityName":"Engine 23","FacilityAddress":"215 W 58th Street","Borough":"Manhattan","Postcode":10019,"Latitude":40.766699000000003,"Longitude":-73.980367999999999,"Community_Board":105,"Community_Council":4,"Census_Tract":137,"BIN":1024915,"BBL":1010300023,"NTA":"Midtown-Midtown South"}},{"type":"Feature","id":22,"geometry":{"type":"Point","coordinates":[988619.61395221949,221468.01118189096]},"properties":{"OBJECTID":22,"FacilityName":"Engine 40/Ladder 35","FacilityAddress":"131 Amsterdam Avenue","Borough":"Manhattan","Postcode":10023,"Latitude":40.774562000000003,"Longitude":-73.984224999999995,"Community_Board":107,"Community_Council":6,"Census_Tract":149,"BIN":1028836,"BBL":1011370061,"NTA":"Lincoln Square"}},{"type":"Feature","id":23,"geometry":{"type":"Point","coordinates":[989833.21027830243,224261.97081705928]},"properties":{"OBJECTID":23,"FacilityName":"Division 3/Ladder 25","FacilityAddress":"207 West 77th Street","Borough":"Manhattan","Postcode":10024,"Latitude":40.782229999999998,"Longitude":-73.979840999999993,"Community_Board":107,"Community_Council":6,"Census_Tract":163,"BIN":1030885,"BBL":1011690026,"NTA":"Upper West Side"}},{"type":"Feature","id":24,"geometry":{"type":"Point","coordinates":[991283.83172088861,225161.15996356308]},"properties":{"OBJECTID":24,"FacilityName":"Engine 74","FacilityAddress":"120 West 83 Street","Borough":"Manhattan","Postcode":10024,"Latitude":40.784697000000001,"Longitude":-73.974602000000004,"Community_Board":107,"Community_Council":6,"Census_Tract":169,"BIN":1032079,"BBL":1012130041,"NTA":"Upper West Side"}},{"type":"Feature","id":25,"geometry":{"type":"Point","coordinates":[992338.70559538901,215030.83737647533]},"properties":{"OBJECTID":25,"FacilityName":"Battalion 8/Engine 8/Ladder 2","FacilityAddress":"165 East 51 Street","Borough":"Manhattan","Postcode":10022,"Latitude":40.756891000000003,"Longitude":-73.970804999999999,"Community_Board":106,"Community_Council":4,"Census_Tract":100,"BIN":1036462,"BBL":1013060033,"NTA":"Turtle Bay-East Midtown"}},{"type":"Feature","id":26,"geometry":{"type":"Point","coordinates":[995841.05620221794,220338.03804814816]},"properties":{"OBJECTID":26,"FacilityName":"Engine 44","FacilityAddress":"221 East 75 Street","Borough":"Manhattan","Postcode":10021,"Latitude":40.771453999999999,"Longitude":-73.958153999999993,"Community_Board":108,"Community_Council":4,"Census_Tract":134,"BIN":1044059,"BBL":1014300010,"NTA":"Lenox Hill-Roosevelt Island"}},{"type":"Feature","id":27,"geometry":{"type":"Point","coordinates":[996627.18816013634,222949.96884790063]},"properties":{"OBJECTID":27,"FacilityName":"Battalion 10/Engine 22/Ladder 13","FacilityAddress":"159 East 85 Street","Borough":"Manhattan","Postcode":10028,"Latitude":40.778621999999999,"Longitude":-73.955310999999995,"Community_Board":108,"Community_Council":5,"Census_Tract":14801,"BIN":1047937,"BBL":1015140027,"NTA":"Upper East Side-Carnegie Hill"}},{"type":"Feature","id":28,"geometry":{"type":"Point","coordinates":[998832.28053471446,230343.9018946439]},"properties":{"OBJECTID":28,"FacilityName":"Engine 58/Ladder 26","FacilityAddress":"1367 Fifth Avenue","Borough":"Manhattan","Postcode":10029,"Latitude":40.798912999999999,"Longitude":-73.947333,"Community_Board":111,"Community_Council":9,"Census_Tract":184,"BIN":1051632,"BBL":1016180014,"NTA":"East Harlem North"}},{"type":"Feature","id":29,"geometry":{"type":"Point","coordinates":[998930.83381530643,226704.25858339667]},"properties":{"OBJECTID":29,"FacilityName":"Engine 53/Ladder 43","FacilityAddress":"1836 Third Avenue","Borough":"Manhattan","Postcode":10029,"Latitude":40.788922999999997,"Longitude":-73.946984999999998,"Community_Board":111,"Community_Council":8,"Census_Tract":166,"BIN":1051850,"BBL":1016290040,"NTA":"East Harlem South"}},{"type":"Feature","id":30,"geometry":{"type":"Point","coordinates":[1000644.8080776334,228497.88196463883]},"properties":{"OBJECTID":30,"FacilityName":"Engine 91","FacilityAddress":"242 East 111 Street","Borough":"Manhattan","Postcode":10029,"Latitude":40.793843000000003,"Longitude":-73.940791000000004,"Community_Board":111,"Community_Council":8,"Census_Tract":180,"BIN":1052473,"BBL":1016600030,"NTA":"East Harlem North"}},{"type":"Feature","id":31,"geometry":{"type":"Point","coordinates":[1001824.3572277278,231943.12999539077]},"properties":{"OBJECTID":31,"FacilityName":"Battalion 12/Engine 35/Ladder 14","FacilityAddress":"2282 Third Avenue","Borough":"Manhattan","Postcode":10035,"Latitude":40.803297000000001,"Longitude":-73.936521999999997,"Community_Board":111,"Community_Council":8,"Census_Tract":196,"BIN":1054465,"BBL":1017730033,"NTA":"East Harlem North"}},{"type":"Feature","id":32,"geometry":{"type":"Point","coordinates":[993315.16361622512,229443.49162197113]},"properties":{"OBJECTID":32,"FacilityName":"Battalion 11/Engine 76/Ladder 22","FacilityAddress":"145 West 100th St.","Borough":"Manhattan","Postcode":10025,"Latitude":40.796449000000003,"Longitude":-73.967260999999993,"Community_Board":107,"Community_Council":7,"Census_Tract":189,"BIN":1055910,"BBL":1018550005,"NTA":"Upper West Side"}},{"type":"Feature","id":33,"geometry":{"type":"Point","coordinates":[994512.46568354964,232539.72263422608]},"properties":{"OBJECTID":33,"FacilityName":"Engine 47","FacilityAddress":"500 West 113 Street","Borough":"Manhattan","Postcode":10025,"Latitude":40.804946000000001,"Longitude":-73.962931999999995,"Community_Board":109,"Community_Council":7,"Census_Tract":199,"BIN":1056999,"BBL":1018840038,"NTA":"Morningside Heights"}},{"type":"Feature","id":34,"geometry":{"type":"Point","coordinates":[1000180.7821028084,235598.10103189945]},"properties":{"OBJECTID":34,"FacilityName":"Engine 59/Ladder 30","FacilityAddress":"111 West 133 Street","Borough":"Manhattan","Postcode":10030,"Latitude":40.813332000000003,"Longitude":-73.942449999999994,"Community_Board":110,"Community_Council":9,"Census_Tract":226,"BIN":1058225,"BBL":1019180024,"NTA":"Central Harlem North-Polo Grounds"}},{"type":"Feature","id":35,"geometry":{"type":"Point","coordinates":[996817.815075472,235082.04727397859]},"properties":{"OBJECTID":35,"FacilityName":"Engine 37/Ladder 40","FacilityAddress":"415 West 125 Street","Borough":"Manhattan","Postcode":10027,"Latitude":40.811920999999998,"Longitude":-73.954599999999999,"Community_Board":109,"Community_Council":7,"Census_Tract":20901,"BIN":1059547,"BBL":1019660061,"NTA":"Morningside Heights"}},{"type":"Feature","id":36,"geometry":{"type":"Point","coordinates":[1000587.9587818831,243827.27486222982]},"properties":{"OBJECTID":36,"FacilityName":"Engine 84/Ladder 34","FacilityAddress":"513 West 161 Street","Borough":"Manhattan","Postcode":10032,"Latitude":40.835917999999999,"Longitude":-73.940959000000007,"Community_Board":112,"Community_Council":7,"Census_Tract":245,"BIN":1062872,"BBL":1021200046,"NTA":"Washington Heights South"}},{"type":"Feature","id":37,"geometry":{"type":"Point","coordinates":[1004952.4247904718,254388.76259747148]},"properties":{"OBJECTID":37,"FacilityName":"Engine 95/Ladder 36","FacilityAddress":"29 Vermilyea Avenue","Borough":"Manhattan","Postcode":10034,"Latitude":40.864896999999999,"Longitude":-73.925154000000006,"Community_Board":112,"Community_Council":10,"Census_Tract":291,"BIN":1064801,"BBL":1022240015,"NTA":"Marble Hill-Inwood"}},{"type":"Feature","id":38,"geometry":{"type":"Point","coordinates":[985425.72171796858,201531.03432364762]},"properties":{"OBJECTID":38,"FacilityName":"Engine 55","FacilityAddress":"363 Broome Street","Borough":"Manhattan","Postcode":10013,"Latitude":40.719841000000002,"Longitude":-73.995760000000004,"Community_Board":102,"Community_Council":1,"Census_Tract":41,"BIN":1066722,"BBL":1004700012,"NTA":"SoHo-TriBeCa-Civic Center-Little Italy"}},{"type":"Feature","id":39,"geometry":{"type":"Point","coordinates":[985187.86491021514,216427.08786481619]},"properties":{"OBJECTID":39,"FacilityName":"Rescue 1","FacilityAddress":"530 West 43 Street","Borough":"Manhattan","Postcode":10036,"Latitude":40.760727000000003,"Longitude":-73.996616000000003,"Community_Board":104,"Community_Council":3,"Census_Tract":129,"BIN":1070109,"BBL":1010710049,"NTA":"Clinton"}},{"type":"Feature","id":40,"geometry":{"type":"Point","coordinates":[994329.94472314417,218737.21185347438]},"properties":{"OBJECTID":40,"FacilityName":"Engine 39/Ladder 16","FacilityAddress":"157 E 67th St","Borough":"Manhattan","Postcode":10065,"Latitude":40.767062000000003,"Longitude":-73.963611999999998,"Community_Board":108,"Community_Council":4,"Census_Tract":120,"BIN":1072190,"BBL":1014020029,"NTA":"Upper East Side-Carnegie Hill"}},{"type":"Feature","id":41,"geometry":{"type":"Point","coordinates":[1000353.0770338029,238336.19988639653]},"properties":{"OBJECTID":41,"FacilityName":"Battalion 16/Engine 69/Ladder 28","FacilityAddress":"248 West 143 Street","Borough":"Manhattan","Postcode":10030,"Latitude":40.820847000000001,"Longitude":-73.941821000000004,"Community_Board":110,"Community_Council":9,"Census_Tract":232,"BIN":1075491,"BBL":1020280051,"NTA":"Central Harlem North-Polo Grounds"}},{"type":"Feature","id":42,"geometry":{"type":"Point","coordinates":[997878.17844030261,238735.81654122472]},"properties":{"OBJECTID":42,"FacilityName":"Engine 80/Ladder 23","FacilityAddress":"503 West 139 Street","Borough":"Manhattan","Postcode":10031,"Latitude":40.821947999999999,"Longitude":-73.950761999999997,"Community_Board":109,"Community_Council":7,"Census_Tract":225,"BIN":1075504,"BBL":1020710027,"NTA":"Hamilton Heights"}},{"type":"Feature","id":43,"geometry":{"type":"Point","coordinates":[1003156.9428171366,248494.12051539123]},"properties":{"OBJECTID":43,"FacilityName":"Battalion 13/Engine 93/Ladder 45","FacilityAddress":"515 West 181 Street","Borough":"Manhattan","Postcode":10033,"Latitude":40.848722000000002,"Longitude":-73.931662000000003,"Community_Board":112,"Community_Council":10,"Census_Tract":269,"BIN":1075518,"BBL":1021550030,"NTA":"Washington Heights North"}},{"type":"Feature","id":44,"geometry":{"type":"Point","coordinates":[980754.96006213129,197879.9386074841]},"properties":{"OBJECTID":44,"FacilityName":"Engine 10/Ladder 10","FacilityAddress":"124 Liberty Street","Borough":"Manhattan","Postcode":10006,"Latitude":40.709819000000003,"Longitude":-74.012608,"Community_Board":101,"Community_Council":1,"Census_Tract":13,"BIN":1075700,"BBL":1000520022,"NTA":"Battery Park City-Lower Manhattan"}},{"type":"Feature","id":45,"geometry":{"type":"Point","coordinates":[989243.1576526314,214331.94244880974]},"properties":{"OBJECTID":45,"FacilityName":"Engine 65","FacilityAddress":"33 West 43 Street","Borough":"Manhattan","Postcode":10036,"Latitude":40.754975000000002,"Longitude":-73.981978999999995,"Community_Board":105,"Community_Council":4,"Census_Tract":96,"BIN":1076256,"BBL":1012590018,"NTA":"Midtown-Midtown South"}},{"type":"Feature","id":46,"geometry":{"type":"Point","coordinates":[983298.61967296898,204518.53753498197]},"properties":{"OBJECTID":46,"FacilityName":"Battalion 2/Engine 24/Ladder 5","FacilityAddress":"227 Sixth Avenue","Borough":"Manhattan","Postcode":10014,"Latitude":40.728040999999997,"Longitude":-74.003433999999999,"Community_Board":102,"Community_Council":3,"Census_Tract":37,"BIN":1080044,"BBL":1005200037,"NTA":"SoHo-TriBeCa-Civic Center-Little Italy"}},{"type":"Feature","id":47,"geometry":{"type":"Point","coordinates":[1001628.1151661426,245781.21058689058]},"properties":{"OBJECTID":47,"FacilityName":"Engine 67","FacilityAddress":"518 West 170 Street","Borough":"Manhattan","Postcode":10032,"Latitude":40.841279,"Longitude":-73.937195000000003,"Community_Board":112,"Community_Council":10,"Census_Tract":253,"BIN":1085743,"BBL":1021260035,"NTA":"Washington Heights South"}},{"type":"Feature","id":48,"geometry":{"type":"Point","coordinates":[980976.32641729712,209111.50046189129]},"properties":{"OBJECTID":48,"FacilityName":"Marine 1","FacilityAddress":"20 Rear Bloomfield Street","Borough":"Manhattan","Postcode":10014,"Latitude":40.740647000000003,"Longitude":-74.011814999999999,"Community_Board":102,"Community_Council":3,"Census_Tract":79,"BIN":1086681,"BBL":1006510105,"NTA":"West Village"}},{"type":"Feature","id":49,"geometry":{"type":"Point","coordinates":[1005801.1734210551,235540.87214373052]},"properties":{"OBJECTID":49,"FacilityName":"Battalion 14/Engine 60/Ladder 17","FacilityAddress":"341 East 143 Street","Borough":"Bronx","Postcode":10454,"Latitude":40.813163000000003,"Longitude":-73.922145999999998,"Community_Board":201,"Community_Council":8,"Census_Tract":41,"BIN":2000656,"BBL":2023060052,"NTA":"Mott Haven-Port Morris"}},{"type":"Feature","id":50,"geometry":{"type":"Point","coordinates":[1006357.8406148106,237057.01084372401]},"properties":{"OBJECTID":50,"FacilityName":"Squad 41","FacilityAddress":"330 East 150th Street","Borough":"Bronx","Postcode":10451,"Latitude":40.817323000000002,"Longitude":-73.92013,"Community_Board":201,"Community_Council":17,"Census_Tract":65,"BIN":2000930,"BBL":2023310033,"NTA":"Melrose South-Mott Haven North"}},{"type":"Feature","id":51,"geometry":{"type":"Point","coordinates":[1007623.1241734773,238139.91156506538]},"properties":{"OBJECTID":51,"FacilityName":"Division 6/Engine 71/Ladder 55","FacilityAddress":"720 Melrose Ave.","Borough":"Bronx","Postcode":10455,"Latitude":40.820292000000002,"Longitude":-73.915554999999998,"Community_Board":201,"Community_Council":17,"Census_Tract":69,"BIN":2001400,"BBL":2023770001,"NTA":"Melrose South-Mott Haven North"}},{"type":"Feature","id":52,"geometry":{"type":"Point","coordinates":[1009677.9406018853,241573.30135181546]},"properties":{"OBJECTID":52,"FacilityName":"Battalion 26/Engine 50/Ladder 19","FacilityAddress":"1155 Washington Ave.","Borough":"Bronx","Postcode":10456,"Latitude":40.829709999999999,"Longitude":-73.908118000000002,"Community_Board":203,"Community_Council":16,"Census_Tract":185,"BIN":2001584,"BBL":2023880045,"NTA":"Morrisania-Melrose"}},{"type":"Feature","id":53,"geometry":{"type":"Point","coordinates":[1004472.8178100586,244100.17818781734]},"properties":{"OBJECTID":53,"FacilityName":"Engine 68/Ladder 49","FacilityAddress":"1160 Ogden Ave.","Borough":"Bronx","Postcode":10452,"Latitude":40.836658999999997,"Longitude":-73.926918999999998,"Community_Board":204,"Community_Council":16,"Census_Tract":199,"BIN":2003268,"BBL":2025140056,"NTA":"Highbridge"}},{"type":"Feature","id":54,"geometry":{"type":"Point","coordinates":[1007550.9688059688,232866.80957847834]},"properties":{"OBJECTID":54,"FacilityName":"Engine 83/Ladder 29","FacilityAddress":"618 East 138 Street","Borough":"Bronx","Postcode":10454,"Latitude":40.805819,"Longitude":-73.915834000000004,"Community_Board":201,"Community_Council":8,"Census_Tract":2701,"BIN":2003609,"BBL":2025500028,"NTA":"Mott Haven-Port Morris"}},{"type":"Feature","id":55,"geometry":{"type":"Point","coordinates":[1015312.0487562269,237525.16312263906]},"properties":{"OBJECTID":55,"FacilityName":"Battalion 3/Engine 94/Ladder 48","FacilityAddress":"1226 Seneca Ave.","Borough":"Bronx","Postcode":10474,"Latitude":40.818581000000002,"Longitude":-73.887777999999997,"Community_Board":202,"Community_Council":17,"Census_Tract":11502,"BIN":2006440,"BBL":2027620054,"NTA":"Hunts Point"}},{"type":"Feature","id":56,"geometry":{"type":"Point","coordinates":[1010032.9248000532,247627.14160631597]},"properties":{"OBJECTID":56,"FacilityName":"Engine 42","FacilityAddress":"1781 Monroe Ave.","Borough":"Bronx","Postcode":10457,"Latitude":40.846325,"Longitude":-73.906812000000002,"Community_Board":205,"Community_Council":15,"Census_Tract":22901,"BIN":2007448,"BBL":2027970035,"NTA":"Mount Hope"}},{"type":"Feature","id":57,"geometry":{"type":"Point","coordinates":[1007132.1960214674,250659.16605405509]},"properties":{"OBJECTID":57,"FacilityName":"Engine 43/Ladder 59","FacilityAddress":"1901 Sedgwick Ave.","Borough":"Bronx","Postcode":10453,"Latitude":40.854655000000001,"Longitude":-73.917286000000004,"Community_Board":205,"Community_Council":16,"Census_Tract":247,"BIN":2009252,"BBL":2028810140,"NTA":"University Heights-Morris Heights"}},{"type":"Feature","id":58,"geometry":{"type":"Point","coordinates":[1011874.3459859639,246752.5738016367]},"properties":{"OBJECTID":58,"FacilityName":"Engine 46/Ladder 27","FacilityAddress":"460 Cross Bronx Expressway","Borough":"Bronx","Postcode":10457,"Latitude":40.843919,"Longitude":-73.90016,"Community_Board":206,"Community_Council":15,"Census_Tract":165,"BIN":2009509,"BBL":2029070010,"NTA":"Claremont-Bathgate"}},{"type":"Feature","id":59,"geometry":{"type":"Point","coordinates":[1012127.5889178067,247646.58448080719]},"properties":{"OBJECTID":59,"FacilityName":"Bronx Borough Command","FacilityAddress":"453 E 176 Street","Borough":"Bronx","Postcode":10457,"Latitude":40.846372000000002,"Longitude":-73.899241000000004,"Community_Board":206,"Community_Council":15,"Census_Tract":395,"BIN":2009541,"BBL":2029090040,"NTA":"Claremont-Bathgate"}},{"type":"Feature","id":60,"geometry":{"type":"Point","coordinates":[1013237.0676699728,241148.10666413605]},"properties":{"OBJECTID":60,"FacilityName":"Engine 82/Ladder 31","FacilityAddress":"1215 Intervale Ave.","Borough":"Bronx","Postcode":10459,"Latitude":40.828532000000003,"Longitude":-73.895258999999996,"Community_Board":203,"Community_Council":17,"Census_Tract":125,"BIN":2010447,"BBL":2029730038,"NTA":"Morrisania-Melrose"}},{"type":"Feature","id":61,"geometry":{"type":"Point","coordinates":[1013574.1313003004,252365.01598881185]},"properties":{"OBJECTID":61,"FacilityName":"Division 7/Engine 48/Ladder 56","FacilityAddress":"2417 Webster Ave.","Borough":"Bronx","Postcode":10458,"Latitude":40.859318000000002,"Longitude":-73.893991999999997,"Community_Board":205,"Community_Council":15,"Census_Tract":39902,"BIN":2011061,"BBL":2030250025,"NTA":"Bedford Park-Fordham North"}},{"type":"Feature","id":62,"geometry":{"type":"Point","coordinates":[1016482.6435278803,246014.28623622656]},"properties":{"OBJECTID":62,"FacilityName":"Battalion 18/Engine 45/Ladder 58","FacilityAddress":"925 East Tremont Ave.","Borough":"Bronx","Postcode":10460,"Latitude":40.841876999999997,"Longitude":-73.883508000000006,"Community_Board":206,"Community_Council":17,"Census_Tract":363,"BIN":2013192,"BBL":2031260012,"NTA":"East Tremont"}},{"type":"Feature","id":63,"geometry":{"type":"Point","coordinates":[1015618.9759638906,256361.09854781628]},"properties":{"OBJECTID":63,"FacilityName":"Battalion 27/Engine 79/Ladder 37","FacilityAddress":"2928 Briggs Ave.","Borough":"Bronx","Postcode":10458,"Latitude":40.870278999999996,"Longitude":-73.886581000000007,"Community_Board":207,"Community_Council":11,"Census_Tract":40702,"BIN":2016936,"BBL":2032970009,"NTA":"Bedford Park-Fordham North"}},{"type":"Feature","id":64,"geometry":{"type":"Point","coordinates":[1020408.3541803807,239137.13004305959]},"properties":{"OBJECTID":64,"FacilityName":"Engine 96/Ladder 54","FacilityAddress":"1689 Story Ave.","Borough":"Bronx","Postcode":10473,"Latitude":40.822986,"Longitude":-73.869356999999994,"Community_Board":209,"Community_Council":18,"Census_Tract":46,"BIN":2022629,"BBL":2036600001,"NTA":"Soundview-Castle Hill-Clason Point-Harding Park"}},{"type":"Feature","id":65,"geometry":{"type":"Point","coordinates":[1021103.1004943103,247656.01982939243]},"properties":{"OBJECTID":65,"FacilityName":"Engine 90/Ladder 41","FacilityAddress":"1843 White Plains Rd.","Borough":"Bronx","Postcode":10462,"Latitude":40.846364999999999,"Longitude":-73.866799999999998,"Community_Board":211,"Community_Council":15,"Census_Tract":236,"BIN":2043470,"BBL":2040490049,"NTA":"Van Nest-Morris Park-Westchester Square"}},{"type":"Feature","id":66,"geometry":{"type":"Point","coordinates":[1026749.9799485505,247185.43087555468]},"properties":{"OBJECTID":66,"FacilityName":"Battalion 20/Squad 61","FacilityAddress":"1518 Williamsbridge Road","Borough":"Bronx","Postcode":10461,"Latitude":40.845047999999998,"Longitude":-73.846393000000006,"Community_Board":211,"Community_Council":13,"Census_Tract":200,"BIN":2044205,"BBL":2040820011,"NTA":"Van Nest-Morris Park-Westchester Square"}},{"type":"Feature","id":67,"geometry":{"type":"Point","coordinates":[1027357.9787325561,252396.18292123079]},"properties":{"OBJECTID":67,"FacilityName":"Engine 97","FacilityAddress":"1454 Astor Ave.","Borough":"Bronx","Postcode":10469,"Latitude":40.859347,"Longitude":-73.844161999999997,"Community_Board":211,"Community_Council":13,"Census_Tract":314,"BIN":2050740,"BBL":2043890023,"NTA":"Allerton-Pelham Gardens"}},{"type":"Feature","id":68,"geometry":{"type":"Point","coordinates":[1020931.113961637,258550.95473238826]},"properties":{"OBJECTID":68,"FacilityName":"Engine 62/Ladder 32","FacilityAddress":"3431 White Plains Road","Borough":"Bronx","Postcode":10467,"Latitude":40.876269000000001,"Longitude":-73.867362,"Community_Board":212,"Community_Council":12,"Census_Tract":374,"BIN":2056968,"BBL":2046280053,"NTA":"Williamsbridge-Olinville"}},{"type":"Feature","id":69,"geometry":{"type":"Point","coordinates":[1026695.7533509731,259185.21265022457]},"properties":{"OBJECTID":69,"FacilityName":"Engine 38/Ladder 51","FacilityAddress":"3446 Eastchester Road","Borough":"Bronx","Postcode":10469,"Latitude":40.877983999999998,"Longitude":-73.846513000000002,"Community_Board":212,"Community_Council":12,"Census_Tract":386,"BIN":2060238,"BBL":2047230045,"NTA":"Eastchester-Edenwald-Baychester"}},{"type":"Feature","id":70,"geometry":{"type":"Point","coordinates":[1024253.9764103889,264662.1993996501]},"properties":{"OBJECTID":70,"FacilityName":"Battalion 15/Engine 63/Ladder 39","FacilityAddress":"755 East 233 Street","Borough":"Bronx","Postcode":10466,"Latitude":40.893028000000001,"Longitude":-73.855310000000003,"Community_Board":212,"Community_Council":12,"Census_Tract":434,"BIN":2068155,"BBL":2049970013,"NTA":"Woodlawn-Wakefield"}},{"type":"Feature","id":71,"geometry":{"type":"Point","coordinates":[1030937.0388316363,256183.92993889749]},"properties":{"OBJECTID":71,"FacilityName":"Engine 66/Ladder 61","FacilityAddress":"21 Asch Loop","Borough":"Bronx","Postcode":10475,"Latitude":40.869725000000003,"Longitude":-73.831197000000003,"Community_Board":210,"Community_Council":12,"Census_Tract":46201,"BIN":2072355,"BBL":2051410103,"NTA":"Co-op City"}},{"type":"Feature","id":72,"geometry":{"type":"Point","coordinates":[1032099.650679633,242929.36884965003]},"properties":{"OBJECTID":72,"FacilityName":"Engine 89/Ladder 50","FacilityAddress":"2924 Bruckner Blvd.","Borough":"Bronx","Postcode":10465,"Latitude":40.833339000000002,"Longitude":-73.827088000000003,"Community_Board":210,"Community_Council":13,"Census_Tract":164,"BIN":2076433,"BBL":2054190125,"NTA":"Schuylerville-Throgs Neck-Edgewater Park"}},{"type":"Feature","id":73,"geometry":{"type":"Point","coordinates":[1034554.9974749684,238552.0908588171]},"properties":{"OBJECTID":73,"FacilityName":"Engine 72","FacilityAddress":"3929 East Tremont Ave.","Borough":"Bronx","Postcode":10465,"Latitude":40.821311000000001,"Longitude":-73.818247999999997,"Community_Board":210,"Community_Council":13,"Census_Tract":130,"BIN":2077258,"BBL":2054430170,"NTA":"Schuylerville-Throgs Neck-Edgewater Park"}},{"type":"Feature","id":74,"geometry":{"type":"Point","coordinates":[1043819.9189057201,247413.01703456044]},"properties":{"OBJECTID":74,"FacilityName":"Engine 70/Ladder 53","FacilityAddress":"169 Schofield Street","Borough":"Bronx","Postcode":10464,"Latitude":40.845573999999999,"Longitude":-73.784694999999999,"Community_Board":210,"Community_Council":13,"Census_Tract":516,"BIN":2082474,"BBL":2056420118,"NTA":"Pelham Bay-Country Club-City Island"}},{"type":"Feature","id":75,"geometry":{"type":"Point","coordinates":[1009781.8258928061,264311.06886830926]},"properties":{"OBJECTID":75,"FacilityName":"Engine 52/Ladder 52","FacilityAddress":"4550 Henry Hudson Parkway E.","Borough":"Bronx","Postcode":10471,"Latitude":40.892118000000004,"Longitude":-73.907656000000003,"Community_Board":208,"Community_Council":11,"Census_Tract":335,"BIN":2084327,"BBL":2058130123,"NTA":"North Riverdale-Fieldston-Riverdale"}},{"type":"Feature","id":76,"geometry":{"type":"Point","coordinates":[1015280.1718514711,249667.02729031444]},"properties":{"OBJECTID":76,"FacilityName":"Engine 88/Ladder 38","FacilityAddress":"2225 Belmont Ave.","Borough":"Bronx","Postcode":10457,"Latitude":40.851906999999997,"Longitude":-73.887837000000005,"Community_Board":206,"Community_Council":15,"Census_Tract":391,"BIN":2086781,"BBL":2030860038,"NTA":"Belmont"}},{"type":"Feature","id":77,"geometry":{"type":"Point","coordinates":[1010890.2367337197,258784.12585397065]},"properties":{"OBJECTID":77,"FacilityName":"Engine 81/Ladder 46","FacilityAddress":"3025 Bailey Ave.","Borough":"Bronx","Postcode":10463,"Latitude":40.876944999999999,"Longitude":-73.903668999999994,"Community_Board":208,"Community_Council":14,"Census_Tract":277,"BIN":2086837,"BBL":2032660068,"NTA":"Van Cortlandt Village"}},{"type":"Feature","id":78,"geometry":{"type":"Point","coordinates":[1010882.8364860564,236315.03398123384]},"properties":{"OBJECTID":78,"FacilityName":"Engine 73/Ladder 42","FacilityAddress":"655 Prospect Ave.","Borough":"Bronx","Postcode":10455,"Latitude":40.815274000000002,"Longitude":-73.903784999999999,"Community_Board":201,"Community_Council":17,"Census_Tract":79,"BIN":2094318,"BBL":2026750033,"NTA":"Melrose South-Mott Haven North"}},{"type":"Feature","id":79,"geometry":{"type":"Point","coordinates":[1025517.4584634751,242588.63757573068]},"properties":{"OBJECTID":79,"FacilityName":"Engine 64/Ladder 47","FacilityAddress":"1214 Castle Hill Ave.","Borough":"Bronx","Postcode":10462,"Latitude":40.832436999999999,"Longitude":-73.850876,"Community_Board":209,"Community_Council":18,"Census_Tract":92,"BIN":2094870,"BBL":2038210007,"NTA":"Westchester-Unionport"}},{"type":"Feature","id":80,"geometry":{"type":"Point","coordinates":[1008152.1418162137,243382.13926956058]},"properties":{"OBJECTID":80,"FacilityName":"Battalion 17/Engine 92/Ladder 44","FacilityAddress":"1259 Morris Ave.","Borough":"Bronx","Postcode":10456,"Latitude":40.834679000000001,"Longitude":-73.913624999999996,"Community_Board":204,"Community_Council":16,"Census_Tract":17901,"BIN":2096490,"BBL":2024500040,"NTA":"East Concourse-Concourse Village"}},{"type":"Feature","id":81,"geometry":{"type":"Point","coordinates":[1011502.7588026375,245770.62727472186]},"properties":{"OBJECTID":81,"FacilityName":"Rescue 3","FacilityAddress":"1655 Washington Ave","Borough":"Bronx","Postcode":10457,"Latitude":40.841225000000001,"Longitude":-73.901506999999995,"Community_Board":203,"Community_Council":16,"Census_Tract":167,"BIN":2117925,"BBL":2029050030,"NTA":"Claremont-Bathgate"}},{"type":"Feature","id":82,"geometry":{"type":"Point","coordinates":[1010689.9576067179,251235.89095047116]},"properties":{"OBJECTID":82,"FacilityName":"Battalion 19/Engine 75/Ladder 33","FacilityAddress":"2175 Walton Ave.","Borough":"Bronx","Postcode":10453,"Latitude":40.856228000000002,"Longitude":-73.904422999999994,"Community_Board":205,"Community_Council":14,"Census_Tract":239,"BIN":2118039,"BBL":2031860037,"NTA":"Fordham South"}},{"type":"Feature","id":83,"geometry":{"type":"Point","coordinates":[989008.03181055188,192645.09802730381]},"properties":{"OBJECTID":83,"FacilityName":"Brooklyn Borough Command/Division 11/Battalion 31/Engine 207/Ladder 110","FacilityAddress":"172 Tillary Street","Borough":"Brooklyn","Postcode":11201,"Latitude":40.695450000000001,"Longitude":-73.982843000000003,"Community_Board":302,"Community_Council":35,"Census_Tract":15,"BIN":3000252,"BBL":3001340006,"NTA":"DUMBO-Vinegar Hill-Downtown Brooklyn-Boerum Hill"}},{"type":"Feature","id":84,"geometry":{"type":"Point","coordinates":[989029.429733634,189592.02276864648]},"properties":{"OBJECTID":84,"FacilityName":"Engine 226","FacilityAddress":"409 State Street","Borough":"Brooklyn","Postcode":11217,"Latitude":40.687069999999999,"Longitude":-73.982767999999993,"Community_Board":302,"Community_Council":33,"Census_Tract":41,"BIN":3000562,"BBL":3001720048,"NTA":"DUMBO-Vinegar Hill-Downtown Brooklyn-Boerum Hill"}},{"type":"Feature","id":85,"geometry":{"type":"Point","coordinates":[986392.94845806062,194312.99167314172]},"properties":{"OBJECTID":85,"FacilityName":"Engine 205/Ladder 118","FacilityAddress":"74 Middagh Street","Borough":"Brooklyn","Postcode":11201,"Latitude":40.700029000000001,"Longitude":-73.992272999999997,"Community_Board":302,"Community_Council":33,"Census_Tract":1,"BIN":3001600,"BBL":3002160022,"NTA":"Brooklyn Heights-Cobble Hill"}},{"type":"Feature","id":86,"geometry":{"type":"Point","coordinates":[985060.14469322562,191778.27036464214]},"properties":{"OBJECTID":86,"FacilityName":"Engine 224","FacilityAddress":"274 Hicks Street","Borough":"Brooklyn","Postcode":11201,"Latitude":40.693072000000001,"Longitude":-73.997079999999997,"Community_Board":302,"Community_Council":33,"Census_Tract":7,"BIN":3002336,"BBL":3002600036,"NTA":"Brooklyn Heights-Cobble Hill"}},{"type":"Feature","id":87,"geometry":{"type":"Point","coordinates":[984343.05098305643,184144.10977998376]},"properties":{"OBJECTID":87,"FacilityName":"Engine 279/Ladder 131","FacilityAddress":"252 Lorraine St.","Borough":"Brooklyn","Postcode":11231,"Latitude":40.672117999999998,"Longitude":-73.999666000000005,"Community_Board":306,"Community_Council":38,"Census_Tract":53,"BIN":3008207,"BBL":3004860018,"NTA":"Carroll Gardens-Columbia Street-Red Hook"}},{"type":"Feature","id":88,"geometry":{"type":"Point","coordinates":[982464.74174755812,187156.4443064779]},"properties":{"OBJECTID":88,"FacilityName":"Battalion 32/Engine 202/Ladder 101","FacilityAddress":"31 Richards Street","Borough":"Brooklyn","Postcode":11231,"Latitude":40.680385999999999,"Longitude":-74.006438000000003,"Community_Board":306,"Community_Council":38,"Census_Tract":59,"BIN":3008254,"BBL":3005120022,"NTA":"Carroll Gardens-Columbia Street-Red Hook"}},{"type":"Feature","id":89,"geometry":{"type":"Point","coordinates":[982772.25819288194,176746.83946956694]},"properties":{"OBJECTID":89,"FacilityName":"Engine 228","FacilityAddress":"436 39th St","Borough":"Brooklyn","Postcode":11232,"Latitude":40.651814000000002,"Longitude":-74.005326999999994,"Community_Board":307,"Community_Council":38,"Census_Tract":84,"BIN":3010534,"BBL":3007090019,"NTA":"Sunset Park West"}},{"type":"Feature","id":90,"geometry":{"type":"Point","coordinates":[990721.82070580125,185067.08660855889]},"properties":{"OBJECTID":90,"FacilityName":"Squad 1","FacilityAddress":"788 Union Street","Borough":"Brooklyn","Postcode":11215,"Latitude":40.674649000000002,"Longitude":-73.976669999999999,"Community_Board":306,"Community_Council":39,"Census_Tract":157,"BIN":3020193,"BBL":3009570023,"NTA":"Park Slope-Gowanus"}},{"type":"Feature","id":91,"geometry":{"type":"Point","coordinates":[987790.27834054828,184021.95320014656]},"properties":{"OBJECTID":91,"FacilityName":"Engine 239","FacilityAddress":"395 4th Ave.","Borough":"Brooklyn","Postcode":11215,"Latitude":40.671782,"Longitude":-73.987239000000002,"Community_Board":306,"Community_Council":39,"Census_Tract":137,"BIN":3021578,"BBL":3009930005,"NTA":"Park Slope-Gowanus"}},{"type":"Feature","id":92,"geometry":{"type":"Point","coordinates":[989396.1081341356,181533.14945071936]},"properties":{"OBJECTID":92,"FacilityName":"Engine 220/Ladder 122","FacilityAddress":"530 11th Street","Borough":"Brooklyn","Postcode":11215,"Latitude":40.664949999999997,"Longitude":-73.981452000000004,"Community_Board":306,"Community_Council":39,"Census_Tract":151,"BIN":3026278,"BBL":3010960025,"NTA":"Park Slope-Gowanus"}},{"type":"Feature","id":93,"geometry":{"type":"Point","coordinates":[991503.06094121933,187451.10972765088]},"properties":{"OBJECTID":93,"FacilityName":"Engine 219/Ladder 105","FacilityAddress":"494 Dean Street","Borough":"Brooklyn","Postcode":11217,"Latitude":40.681192000000003,"Longitude":-73.973850999999996,"Community_Board":308,"Community_Council":35,"Census_Tract":161,"BIN":3027813,"BBL":3011360011,"NTA":"Prospect Heights"}},{"type":"Feature","id":94,"geometry":{"type":"Point","coordinates":[994890.8455042243,184640.10419480503]},"properties":{"OBJECTID":94,"FacilityName":"Engine 280/Ladder 132","FacilityAddress":"489 Saint John's Place","Borough":"Brooklyn","Postcode":11238,"Latitude":40.673473000000001,"Longitude":-73.961641,"Community_Board":308,"Community_Council":35,"Census_Tract":215,"BIN":3029451,"BBL":3011740051,"NTA":"Prospect Heights"}},{"type":"Feature","id":95,"geometry":{"type":"Point","coordinates":[1002699.1320529729,183540.86229881644]},"properties":{"OBJECTID":95,"FacilityName":"Battalion 38/Engine 234/Ladder 123","FacilityAddress":"1352 Saint John's Place","Borough":"Brooklyn","Postcode":11213,"Latitude":40.670442999999999,"Longitude":-73.933494999999994,"Community_Board":308,"Community_Council":35,"Census_Tract":351,"BIN":3037055,"BBL":3013840008,"NTA":"Crown Heights North"}},{"type":"Feature","id":96,"geometry":{"type":"Point","coordinates":[1005961.928348884,185124.01595664024]},"properties":{"OBJECTID":96,"FacilityName":"Engine 227","FacilityAddress":"423 Ralph Ave.","Borough":"Brooklyn","Postcode":11233,"Latitude":40.674781000000003,"Longitude":-73.921728000000002,"Community_Board":316,"Community_Council":41,"Census_Tract":303,"BIN":3038838,"BBL":3014450002,"NTA":"Ocean Hill"}},{"type":"Feature","id":97,"geometry":{"type":"Point","coordinates":[1008824.9531346411,188016.23523780704]},"properties":{"OBJECTID":97,"FacilityName":"Engine 233/Ladder 176","FacilityAddress":"25 Rockaway Ave.","Borough":"Brooklyn","Postcode":11233,"Latitude":40.682712000000002,"Longitude":-73.911395999999996,"Community_Board":316,"Community_Council":37,"Census_Tract":369,"BIN":3040990,"BBL":3015120001,"NTA":"Ocean Hill"}},{"type":"Feature","id":98,"geometry":{"type":"Point","coordinates":[1001445.6158592254,191670.30732597411]},"properties":{"OBJECTID":98,"FacilityName":"Engine 217","FacilityAddress":"940 Dekalb Avenue","Borough":"Brooklyn","Postcode":11221,"Latitude":40.692759000000002,"Longitude":-73.937993000000006,"Community_Board":303,"Community_Council":36,"Census_Tract":281,"BIN":3043215,"BBL":3016010023,"NTA":"Stuyvesant Heights"}},{"type":"Feature","id":99,"geometry":{"type":"Point","coordinates":[1005206.9459349662,190519.06520588696]},"properties":{"OBJECTID":99,"FacilityName":"Battalion 37/Engine 222","FacilityAddress":"32 Ralph Ave.","Borough":"Brooklyn","Postcode":11221,"Latitude":40.689591,"Longitude":-73.924432999999993,"Community_Board":303,"Community_Council":41,"Census_Tract":387,"BIN":3044596,"BBL":3016330039,"NTA":"Stuyvesant Heights"}},{"type":"Feature","id":100,"geometry":{"type":"Point","coordinates":[1002064.0306328833,188628.96793623269]},"properties":{"OBJECTID":100,"FacilityName":"Engine 214/Ladder 111","FacilityAddress":"495 Hancock Street","Borough":"Brooklyn","Postcode":11233,"Latitude":40.68441,"Longitude":-73.935771000000003,"Community_Board":303,"Community_Council":36,"Census_Tract":275,"BIN":3045695,"BBL":3016540045,"NTA":"Stuyvesant Heights"}},{"type":"Feature","id":101,"geometry":{"type":"Point","coordinates":[998806.1217943877,193602.07905296981]},"properties":{"OBJECTID":101,"FacilityName":"Engine 230","FacilityAddress":"701 Park Avenue","Borough":"Brooklyn","Postcode":11206,"Latitude":40.698065999999997,"Longitude":-73.947507000000002,"Community_Board":303,"Community_Council":36,"Census_Tract":257,"BIN":3048373,"BBL":3017300049,"NTA":"Bedford"}},{"type":"Feature","id":102,"geometry":{"type":"Point","coordinates":[997812.99976488948,188904.9349039793]},"properties":{"OBJECTID":102,"FacilityName":"Battalion 57/Engine 235","FacilityAddress":"206 Monroe Street","Borough":"Brooklyn","Postcode":11216,"Latitude":40.685175000000001,"Longitude":-73.951098000000002,"Community_Board":303,"Community_Council":36,"Census_Tract":245,"BIN":3051323,"BBL":3018170048,"NTA":"Bedford"}},{"type":"Feature","id":103,"geometry":{"type":"Point","coordinates":[996281.29646347463,192705.17533497512]},"properties":{"OBJECTID":103,"FacilityName":"Ladder 102","FacilityAddress":"850 Bedford Ave.","Borough":"Brooklyn","Postcode":11205,"Latitude":40.695608,"Longitude":-73.956614000000002,"Community_Board":303,"Community_Council":33,"Census_Tract":1237,"BIN":3054771,"BBL":3019000050,"NTA":"Bedford"}},{"type":"Feature","id":104,"geometry":{"type":"Point","coordinates":[991736.12641997635,191679.94805473089]},"properties":{"OBJECTID":104,"FacilityName":"Engine 210","FacilityAddress":"160 Carlton Ave.","Borough":"Brooklyn","Postcode":11205,"Latitude":40.692799000000001,"Longitude":-73.973005999999998,"Community_Board":302,"Community_Council":35,"Census_Tract":183,"BIN":3058296,"BBL":3020720033,"NTA":"Fort Greene"}},{"type":"Feature","id":105,"geometry":{"type":"Point","coordinates":[994706.71956013143,194806.99298173189]},"properties":{"OBJECTID":105,"FacilityName":"Engine 211/Ladder 119","FacilityAddress":"26 Hooper Street","Borough":"Brooklyn","Postcode":11249,"Latitude":40.701379000000003,"Longitude":-73.962288999999998,"Community_Board":301,"Community_Council":33,"Census_Tract":539,"BIN":3060298,"BBL":3022030016,"NTA":"Williamsburg"}},{"type":"Feature","id":106,"geometry":{"type":"Point","coordinates":[995030.88721889257,199104.77178773284]},"properties":{"OBJECTID":106,"FacilityName":"Engine 221/Ladder 104","FacilityAddress":"161 South 2nd Street","Borough":"Brooklyn","Postcode":11211,"Latitude":40.713175,"Longitude":-73.961112999999997,"Community_Board":301,"Community_Council":34,"Census_Tract":551,"BIN":3062972,"BBL":3024060035,"NTA":"North Side-South Side"}},{"type":"Feature","id":107,"geometry":{"type":"Point","coordinates":[997941.24393096566,196578.15085673332]},"properties":{"OBJECTID":107,"FacilityName":"Battalion 35/Engine 216/Ladder 108","FacilityAddress":"187 Union Ave.","Borough":"Brooklyn","Postcode":11211,"Latitude":40.706235999999997,"Longitude":-73.950620000000001,"Community_Board":301,"Community_Council":34,"Census_Tract":527,"BIN":3063633,"BBL":3024650100,"NTA":"North Side-South Side"}},{"type":"Feature","id":108,"geometry":{"type":"Point","coordinates":[997790.98209238052,205508.17433522642]},"properties":{"OBJECTID":108,"FacilityName":"Engine 238/Ladder 106","FacilityAddress":"205 Greenpoint Ave.","Borough":"Brooklyn","Postcode":11222,"Latitude":40.730747000000001,"Longitude":-73.951143999999999,"Community_Board":301,"Community_Council":33,"Census_Tract":579,"BIN":3064786,"BBL":3025600050,"NTA":"Greenpoint"}},{"type":"Feature","id":109,"geometry":{"type":"Point","coordinates":[998381.11739505827,201089.90528464317]},"properties":{"OBJECTID":109,"FacilityName":"Engine 229/Ladder 146","FacilityAddress":"75 Richardson Street","Borough":"Brooklyn","Postcode":11211,"Latitude":40.718618999999997,"Longitude":-73.949023999999994,"Community_Board":301,"Community_Council":33,"Census_Tract":515,"BIN":3067898,"BBL":3027220028,"NTA":"North Side-South Side"}},{"type":"Feature","id":110,"geometry":{"type":"Point","coordinates":[1004165.9549067169,199885.11143440008]},"properties":{"OBJECTID":110,"FacilityName":"Engine 206","FacilityAddress":"1201 Grand Street","Borough":"Brooklyn","Postcode":11211,"Latitude":40.715300999999997,"Longitude":-73.928158999999994,"Community_Board":301,"Community_Council":34,"Census_Tract":449,"BIN":3070506,"BBL":3029290053,"NTA":"East Williamsburg"}},{"type":"Feature","id":111,"geometry":{"type":"Point","coordinates":[1003122.8428197205,196244.98354406655]},"properties":{"OBJECTID":111,"FacilityName":"Engine 237","FacilityAddress":"43 Morgan Ave.","Borough":"Brooklyn","Postcode":11237,"Latitude":40.705311999999999,"Longitude":-73.931932000000003,"Community_Board":301,"Community_Council":34,"Census_Tract":453,"BIN":3071494,"BBL":3031020023,"NTA":"Bushwick North"}},{"type":"Feature","id":112,"geometry":{"type":"Point","coordinates":[1004606.0954306424,193695.87217247486]},"properties":{"OBJECTID":112,"FacilityName":"Engine 218","FacilityAddress":"650 Hart Street","Borough":"Brooklyn","Postcode":11221,"Latitude":40.698312000000001,"Longitude":-73.926590000000004,"Community_Board":304,"Community_Council":34,"Census_Tract":423,"BIN":3073407,"BBL":3032280013,"NTA":"Bushwick South"}},{"type":"Feature","id":113,"geometry":{"type":"Point","coordinates":[1007535.1689688116,195636.00969639421]},"properties":{"OBJECTID":113,"FacilityName":"Battalion 28/Engine 271/Ladder 124","FacilityAddress":"392 Himrod Street","Borough":"Brooklyn","Postcode":11237,"Latitude":40.703629999999997,"Longitude":-73.916020000000003,"Community_Board":304,"Community_Council":37,"Census_Tract":443,"BIN":3074885,"BBL":3032810022,"NTA":"Bushwick North"}},{"type":"Feature","id":114,"geometry":{"type":"Point","coordinates":[1007915.0943900496,193001.17900806665]},"properties":{"OBJECTID":114,"FacilityName":"Engine 277/Ladder 112","FacilityAddress":"582 Knickerbocker Ave.","Borough":"Brooklyn","Postcode":11221,"Latitude":40.696396999999997,"Longitude":-73.914659,"Community_Board":304,"Community_Council":37,"Census_Tract":433,"BIN":3076461,"BBL":3033430029,"NTA":"Bushwick North"}},{"type":"Feature","id":115,"geometry":{"type":"Point","coordinates":[1009725.7646532208,190161.24046222866]},"properties":{"OBJECTID":115,"FacilityName":"Squad 252","FacilityAddress":"617 Central Ave.","Borough":"Brooklyn","Postcode":11207,"Latitude":40.688597000000001,"Longitude":-73.908140000000003,"Community_Board":304,"Community_Council":37,"Census_Tract":411,"BIN":3079480,"BBL":3034290003,"NTA":"Bushwick South"}},{"type":"Feature","id":116,"geometry":{"type":"Point","coordinates":[1009801.7251312137,183593.56232464314]},"properties":{"OBJECTID":116,"FacilityName":"Battalion 44/Engine 231/Ladder 120","FacilityAddress":"107 Watkins Street","Borough":"Brooklyn","Postcode":11212,"Latitude":40.670569999999998,"Longitude":-73.907891000000006,"Community_Board":316,"Community_Council":37,"Census_Tract":906,"BIN":3080767,"BBL":3035070005,"NTA":"Brownsville"}},{"type":"Feature","id":117,"geometry":{"type":"Point","coordinates":[1007014.0502603948,180091.78225472569]},"properties":{"OBJECTID":117,"FacilityName":"Division 15/Engine 283","FacilityAddress":"885 Howard Ave.","Borough":"Brooklyn","Postcode":11212,"Latitude":40.660966000000002,"Longitude":-73.917952,"Community_Board":316,"Community_Council":41,"Census_Tract":894,"BIN":3081953,"BBL":3035800020,"NTA":"Brownsville"}},{"type":"Feature","id":118,"geometry":{"type":"Point","coordinates":[1014014.9539094716,185383.9327596426]},"properties":{"OBJECTID":118,"FacilityName":"Engine 332/Ladder 175","FacilityAddress":"165 Bradford st.","Borough":"Brooklyn","Postcode":11207,"Latitude":40.675471000000002,"Longitude":-73.892695000000003,"Community_Board":305,"Community_Council":37,"Census_Tract":1198,"BIN":3083579,"BBL":3036910001,"NTA":"East New York"}},{"type":"Feature","id":119,"geometry":{"type":"Point","coordinates":[1013256.0965033025,181612.94292631745]},"properties":{"OBJECTID":119,"FacilityName":"Engine 290/Ladder 103","FacilityAddress":"480 Sheffield Ave.","Borough":"Brooklyn","Postcode":11207,"Latitude":40.665123000000001,"Longitude":-73.895447000000004,"Community_Board":305,"Community_Council":42,"Census_Tract":1126,"BIN":3084622,"BBL":3038040043,"NTA":"East New York (Pennsylvania Ave)"}},{"type":"Feature","id":120,"geometry":{"type":"Point","coordinates":[1019533.1069151312,186220.89598073065]},"properties":{"OBJECTID":120,"FacilityName":"Engine 236","FacilityAddress":"998 Liberty Ave.","Borough":"Brooklyn","Postcode":11208,"Latitude":40.677748000000001,"Longitude":-73.872797000000006,"Community_Board":305,"Community_Council":37,"Census_Tract":1196,"BIN":3094289,"BBL":3041940020,"NTA":"East New York"}},{"type":"Feature","id":121,"geometry":{"type":"Point","coordinates":[1021594.1985934675,183199.31770631671]},"properties":{"OBJECTID":121,"FacilityName":"Battalion 39/Engine 225/Ladder 107","FacilityAddress":"799 Lincoln Ave.","Borough":"Brooklyn","Postcode":11208,"Latitude":40.669446000000001,"Longitude":-73.865382999999994,"Community_Board":305,"Community_Council":42,"Census_Tract":1208,"BIN":3095894,"BBL":3042710075,"NTA":"East New York"}},{"type":"Feature","id":122,"geometry":{"type":"Point","coordinates":[1003983.0717423111,176223.24963746965]},"properties":{"OBJECTID":122,"FacilityName":"Engine 310/Ladder 174","FacilityAddress":"5105 Snyder Ave.","Borough":"Brooklyn","Postcode":11203,"Latitude":40.650354999999998,"Longitude":-73.928888000000001,"Community_Board":317,"Community_Council":41,"Census_Tract":862,"BIN":3102909,"BBL":3046990040,"NTA":"Rugby-Remsen Village"}},{"type":"Feature","id":123,"geometry":{"type":"Point","coordinates":[997209.07347930968,179826.26802197099]},"properties":{"OBJECTID":123,"FacilityName":"Engine 249/Ladder 113","FacilityAddress":"491 Rogers Ave.","Borough":"Brooklyn","Postcode":11225,"Latitude":40.660257000000001,"Longitude":-73.953293000000002,"Community_Board":309,"Community_Council":40,"Census_Tract":800,"BIN":3114990,"BBL":3050330004,"NTA":"Prospect Lefferts Gardens-Wingate"}},{"type":"Feature","id":124,"geometry":{"type":"Point","coordinates":[998128.70418597758,175632.99917756021]},"properties":{"OBJECTID":124,"FacilityName":"Battalion 41/Engine 248","FacilityAddress":"2900 Snyder Ave.","Borough":"Brooklyn","Postcode":11226,"Latitude":40.648746000000003,"Longitude":-73.949986999999993,"Community_Board":317,"Community_Council":40,"Census_Tract":824,"BIN":3117400,"BBL":3051110024,"NTA":"Erasmus"}},{"type":"Feature","id":125,"geometry":{"type":"Point","coordinates":[993500.75970171392,172453.1354585588]},"properties":{"OBJECTID":125,"FacilityName":"Engine 281/Ladder 147","FacilityAddress":"1210 Cortelyou Road","Borough":"Brooklyn","Postcode":11218,"Latitude":40.640023999999997,"Longitude":-73.966668999999996,"Community_Board":314,"Community_Council":40,"Census_Tract":526,"BIN":3118638,"BBL":3051550004,"NTA":"Flatbush"}},{"type":"Feature","id":126,"geometry":{"type":"Point","coordinates":[997950.0260656327,171150.94449339807]},"properties":{"OBJECTID":126,"FacilityName":"Engine 255/Ladder 157","FacilityAddress":"1367 Rogers Ave.","Borough":"Brooklyn","Postcode":11210,"Latitude":40.636443999999997,"Longitude":-73.950640000000007,"Community_Board":314,"Community_Council":45,"Census_Tract":788,"BIN":3120929,"BBL":3052290009,"NTA":"Flatbush"}},{"type":"Feature","id":127,"geometry":{"type":"Point","coordinates":[991028.22068355978,176514.93409347534]},"properties":{"OBJECTID":127,"FacilityName":"Battalion 48/Engine 240","FacilityAddress":"1307 Prospect Ave.","Borough":"Brooklyn","Postcode":11218,"Latitude":40.651175000000002,"Longitude":-73.975573999999995,"Community_Board":307,"Community_Council":39,"Census_Tract":504,"BIN":3122838,"BBL":3052850021,"NTA":"Windsor Terrace"}},{"type":"Feature","id":128,"geometry":{"type":"Point","coordinates":[986816.99354171753,172509.07465113699]},"properties":{"OBJECTID":128,"FacilityName":"Engine 282/Ladder 148","FacilityAddress":"4210 12th Ave.","Borough":"Brooklyn","Postcode":11219,"Latitude":40.640182000000003,"Longitude":-73.990752000000001,"Community_Board":312,"Community_Council":39,"Census_Tract":224,"BIN":3135859,"BBL":3055970044,"NTA":"Borough Park"}},{"type":"Feature","id":129,"geometry":{"type":"Point","coordinates":[984868.0158123821,168078.00444506109]},"properties":{"OBJECTID":129,"FacilityName":"Engine 247","FacilityAddress":"1336 60th Street","Borough":"Brooklyn","Postcode":11219,"Latitude":40.628019999999999,"Longitude":-73.997775000000004,"Community_Board":312,"Community_Council":44,"Census_Tract":192,"BIN":3141309,"BBL":3057190022,"NTA":"Borough Park"}},{"type":"Feature","id":130,"geometry":{"type":"Point","coordinates":[977267.26690630615,171772.18012756109]},"properties":{"OBJECTID":130,"FacilityName":"Engine 241/Ladder 109","FacilityAddress":"6630 3rd Avenue","Borough":"Brooklyn","Postcode":11220,"Latitude":40.638157,"Longitude":-74.025160999999997,"Community_Board":310,"Community_Council":43,"Census_Tract":70,"BIN":3144349,"BBL":3058410040,"NTA":"Bay Ridge"}},{"type":"Feature","id":131,"geometry":{"type":"Point","coordinates":[976054.92910788953,164206.22380280495]},"properties":{"OBJECTID":131,"FacilityName":"Engine 242","FacilityAddress":"9219 5th Ave.","Borough":"Brooklyn","Postcode":11209,"Latitude":40.617389000000003,"Longitude":-74.029520000000005,"Community_Board":310,"Community_Council":43,"Census_Tract":160,"BIN":3155323,"BBL":3061090019,"NTA":"Bay Ridge"}},{"type":"Feature","id":132,"geometry":{"type":"Point","coordinates":[980769.95707938075,165139.95290647447]},"properties":{"OBJECTID":132,"FacilityName":"Engine 284/Ladder 149","FacilityAddress":"1157 79th St.","Borough":"Brooklyn","Postcode":11228,"Latitude":40.619954999999997,"Longitude":-74.012536999999995,"Community_Board":310,"Community_Council":43,"Census_Tract":202,"BIN":3161800,"BBL":3062540053,"NTA":"Dyker Heights"}},{"type":"Feature","id":133,"geometry":{"type":"Point","coordinates":[983279.93762372434,160069.03358639777]},"properties":{"OBJECTID":133,"FacilityName":"Battalion 42/Engine 243/Ladder 168","FacilityAddress":"8653 18th Ave.","Borough":"Brooklyn","Postcode":11214,"Latitude":40.606037000000001,"Longitude":-74.003495000000001,"Community_Board":311,"Community_Council":47,"Census_Tract":278,"BIN":3166596,"BBL":3063690024,"NTA":"Bensonhurst West"}},{"type":"Feature","id":134,"geometry":{"type":"Point","coordinates":[991028.93393671513,167983.12307314575]},"properties":{"OBJECTID":134,"FacilityName":"Engine 250","FacilityAddress":"126 Foster Ave.","Borough":"Brooklyn","Postcode":11230,"Latitude":40.627757000000003,"Longitude":-73.975579999999994,"Community_Board":314,"Community_Council":44,"Census_Tract":46201,"BIN":3170273,"BBL":3064990011,"NTA":"Flatbush"}},{"type":"Feature","id":135,"geometry":{"type":"Point","coordinates":[990038.49136380851,162288.44745464623]},"properties":{"OBJECTID":135,"FacilityName":"Engine 330/Ladder 172","FacilityAddress":"2312 65th Street","Borough":"Brooklyn","Postcode":11204,"Latitude":40.612127000000001,"Longitude":-73.979152999999997,"Community_Board":311,"Community_Council":44,"Census_Tract":434,"BIN":3173419,"BBL":3065800006,"NTA":"Bensonhurst East"}},{"type":"Feature","id":136,"geometry":{"type":"Point","coordinates":[995597.9933681339,161284.1374553889]},"properties":{"OBJECTID":136,"FacilityName":"Battalion 33/Engine 276/Ladder 156","FacilityAddress":"1635 E. 14th Street","Borough":"Brooklyn","Postcode":11229,"Latitude":40.609364999999997,"Longitude":-73.959130999999999,"Community_Board":315,"Community_Council":48,"Census_Tract":554,"BIN":3182420,"BBL":3067770064,"NTA":"Homecrest"}},{"type":"Feature","id":137,"geometry":{"type":"Point","coordinates":[987438.96309830248,157489.79760314524]},"properties":{"OBJECTID":137,"FacilityName":"Engine 253","FacilityAddress":"2429 86th Street","Borough":"Brooklyn","Postcode":11214,"Latitude":40.598956999999999,"Longitude":-73.988517999999999,"Community_Board":311,"Community_Council":47,"Census_Tract":298,"BIN":3185381,"BBL":3068590067,"NTA":"Bensonhurst East"}},{"type":"Feature","id":138,"geometry":{"type":"Point","coordinates":[986191.86815156043,149767.06600140035]},"properties":{"OBJECTID":138,"FacilityName":"Engine 318/Ladder 166","FacilityAddress":"2510 Neptune Ave.","Borough":"Brooklyn","Postcode":11224,"Latitude":40.577759999999998,"Longitude":-73.993010999999996,"Community_Board":313,"Community_Council":47,"Census_Tract":328,"BIN":3188880,"BBL":3070130007,"NTA":"Seagate-Coney Island"}},{"type":"Feature","id":139,"geometry":{"type":"Point","coordinates":[994800.88964739442,157323.92227873206]},"properties":{"OBJECTID":139,"FacilityName":"Engine 254/Ladder 153","FacilityAddress":"901 Avenue U","Borough":"Brooklyn","Postcode":11223,"Latitude":40.598495999999997,"Longitude":-73.962007999999997,"Community_Board":315,"Community_Council":47,"Census_Tract":394,"BIN":3192210,"BBL":3071120049,"NTA":"Homecrest"}},{"type":"Feature","id":140,"geometry":{"type":"Point","coordinates":[990872.99527221918,149394.45683847368]},"properties":{"OBJECTID":140,"FacilityName":"Battalion 43/Engine 245/Ladder 161","FacilityAddress":"2929 W. 8th Street","Borough":"Brooklyn","Postcode":11224,"Latitude":40.576734999999999,"Longitude":-73.976159999999993,"Community_Board":313,"Community_Council":48,"Census_Tract":354,"BIN":3196591,"BBL":3072790290,"NTA":"West Brighton"}},{"type":"Feature","id":141,"geometry":{"type":"Point","coordinates":[1011010.2699582279,174865.92722089589]},"properties":{"OBJECTID":141,"FacilityName":"Battalion 58/Engine 257/Ladder 170","FacilityAddress":"1361 Rockaway Parkway","Borough":"Brooklyn","Postcode":11236,"Latitude":40.646611,"Longitude":-73.903569000000005,"Community_Board":318,"Community_Council":42,"Census_Tract":974,"BIN":3229407,"BBL":3081660033,"NTA":"Canarsie"}},{"type":"Feature","id":142,"geometry":{"type":"Point","coordinates":[1007609.0277449638,165215.771652475]},"properties":{"OBJECTID":142,"FacilityName":"Engine 323","FacilityAddress":"6405 Avenue N","Borough":"Brooklyn","Postcode":11234,"Latitude":40.620133000000003,"Longitude":-73.915858999999998,"Community_Board":318,"Community_Council":46,"Census_Tract":69602,"BIN":3235919,"BBL":3083640006,"NTA":"Georgetown-Marine Park-Bergen Beach-Mill Basin"}},{"type":"Feature","id":143,"geometry":{"type":"Point","coordinates":[1004193.0706661344,163435.91103897989]},"properties":{"OBJECTID":143,"FacilityName":"Engine 309/Ladder 159","FacilityAddress":"1851 E. 48 Street","Borough":"Brooklyn","Postcode":11234,"Latitude":40.615256000000002,"Longitude":-73.928168999999997,"Community_Board":318,"Community_Council":46,"Census_Tract":672,"BIN":3239495,"BBL":3084880016,"NTA":"Flatlands"}},{"type":"Feature","id":144,"geometry":{"type":"Point","coordinates":[995523.92921181023,152143.1767347306]},"properties":{"OBJECTID":144,"FacilityName":"Engine 246/Ladder 169","FacilityAddress":"2732 E. 11th Street","Borough":"Brooklyn","Postcode":11235,"Latitude":40.584274999999998,"Longitude":-73.959412999999998,"Community_Board":315,"Community_Council":48,"Census_Tract":608,"BIN":3246894,"BBL":3087610038,"NTA":"Sheepshead Bay-Gerritsen Beach-Manhattan Beach"}},{"type":"Feature","id":145,"geometry":{"type":"Point","coordinates":[1002247.8645828068,158702.16394481063]},"properties":{"OBJECTID":145,"FacilityName":"Engine 321","FacilityAddress":"2165 Gerritsen Ave.","Borough":"Brooklyn","Postcode":11229,"Latitude":40.602266999999998,"Longitude":-73.935187999999997,"Community_Board":315,"Community_Council":46,"Census_Tract":638,"BIN":3248186,"BBL":3088170049,"NTA":"Madison"}},{"type":"Feature","id":146,"geometry":{"type":"Point","coordinates":[992115.96752379835,196192.29073606431]},"properties":{"OBJECTID":146,"FacilityName":"Marine Battlion/Marine 6","FacilityAddress":"Brooklyn Navy Yard Building 292","Borough":"Brooklyn","Postcode":11205,"Latitude":40.705184000000003,"Longitude":-73.971631000000002,"Community_Board":302,"Community_Council":33,"Census_Tract":543,"BIN":3335122,"BBL":3020230001,"NTA":"park-cemetery-etc-Brooklyn"}},{"type":"Feature","id":147,"geometry":{"type":"Point","coordinates":[980592.84686930478,174412.09545139968]},"properties":{"OBJECTID":147,"FacilityName":"Battalion 40/Engine 201/Ladder 114","FacilityAddress":"5113 4th Avenue","Borough":"Brooklyn","Postcode":11220,"Latitude":40.645404999999997,"Longitude":-74.013180000000006,"Community_Board":307,"Community_Council":38,"Census_Tract":78,"BIN":3414005,"BBL":3007990003,"NTA":"Sunset Park West"}},{"type":"Feature","id":148,"geometry":{"type":"Point","coordinates":[1006756.5117334723,183763.6072601378]},"properties":{"OBJECTID":148,"FacilityName":"Rescue 2","FacilityAddress":"1815 Sterling Place","Borough":"Brooklyn","Postcode":11233,"Latitude":40.671044999999999,"Longitude":-73.918868000000003,"Community_Board":316,"Community_Council":41,"Census_Tract":363,"BIN":3421359,"BBL":3014670022,"NTA":"Ocean Hill"}},{"type":"Feature","id":149,"geometry":{"type":"Point","coordinates":[997618.78493021429,210695.79617780447]},"properties":{"OBJECTID":149,"FacilityName":"Engine 258/Ladder 115","FacilityAddress":"10-40 47th Ave.","Borough":"Queens","Postcode":11101,"Latitude":40.744985999999997,"Longitude":-73.951755000000006,"Community_Board":402,"Community_Council":26,"Census_Tract":7,"BIN":4000333,"BBL":4000460034,"NTA":"Hunters Point-Sunnyside-West Maspeth"}},{"type":"Feature","id":150,"geometry":{"type":"Point","coordinates":[1008162.0909433067,210810.27757614851]},"properties":{"OBJECTID":150,"FacilityName":"Engine 325/Ladder 163","FacilityAddress":"41-24 51st Street","Borough":"Queens","Postcode":11377,"Latitude":40.745277999999999,"Longitude":-73.913704999999993,"Community_Board":402,"Community_Council":26,"Census_Tract":25302,"BIN":4000979,"BBL":4001310031,"NTA":"Hunters Point-Sunnyside-West Maspeth"}},{"type":"Feature","id":151,"geometry":{"type":"Point","coordinates":[1002761.8113895506,207570.29225823283]},"properties":{"OBJECTID":151,"FacilityName":"Battalion 45/Engine 259/Ladder 128","FacilityAddress":"33-51 Greenpoint Avenue","Borough":"Queens","Postcode":11101,"Latitude":40.736398000000001,"Longitude":-73.933203000000006,"Community_Board":402,"Community_Council":26,"Census_Tract":199,"BIN":4003673,"BBL":4003070033,"NTA":"Hunters Point-Sunnyside-West Maspeth"}},{"type":"Feature","id":152,"geometry":{"type":"Point","coordinates":[1000848.8060292155,216050.92523130774]},"properties":{"OBJECTID":152,"FacilityName":"Engine 260","FacilityAddress":"11-15 37th Avenue","Borough":"Queens","Postcode":11101,"Latitude":40.759678999999998,"Longitude":-73.940084999999996,"Community_Board":401,"Community_Council":26,"Census_Tract":85,"BIN":4004305,"BBL":4003520035,"NTA":"Queensbridge-Ravenswood-Long Island City"}},{"type":"Feature","id":153,"geometry":{"type":"Point","coordinates":[1002739.0775111318,214494.04087789357]},"properties":{"OBJECTID":153,"FacilityName":"Ladder 116","FacilityAddress":"37-20 29th Street","Borough":"Queens","Postcode":11101,"Latitude":40.755401999999997,"Longitude":-73.933266000000003,"Community_Board":401,"Community_Council":26,"Census_Tract":51,"BIN":4004505,"BBL":4003700023,"NTA":"Queensbridge-Ravenswood-Long Island City"}},{"type":"Feature","id":154,"geometry":{"type":"Point","coordinates":[1003853.1300730556,218912.08683180809]},"properties":{"OBJECTID":154,"FacilityName":"Engine 262","FacilityAddress":"30-89 21st Street","Borough":"Queens","Postcode":11102,"Latitude":40.767525999999997,"Longitude":-73.929231999999999,"Community_Board":401,"Community_Council":22,"Census_Tract":79,"BIN":4006338,"BBL":4005510016,"NTA":"Old Astoria"}},{"type":"Feature","id":155,"geometry":{"type":"Point","coordinates":[1009498.9517866373,219171.97345113754]},"properties":{"OBJECTID":155,"FacilityName":"Engine 263/Ladder 117","FacilityAddress":"42-06, 42-08 Astoria Blvd. South","Borough":"Queens","Postcode":11103,"Latitude":40.768225000000001,"Longitude":-73.908849000000004,"Community_Board":401,"Community_Council":22,"Census_Tract":141,"BIN":4011565,"BBL":4006880017,"NTA":"Astoria"}},{"type":"Feature","id":156,"geometry":{"type":"Point","coordinates":[1009057.9677604735,221072.97489847243]},"properties":{"OBJECTID":156,"FacilityName":"Battalion 49/Engine 312","FacilityAddress":"22-63 35th St.","Borough":"Queens","Postcode":11105,"Latitude":40.773443999999998,"Longitude":-73.910433999999995,"Community_Board":401,"Community_Council":22,"Census_Tract":117,"BIN":4016405,"BBL":4008220007,"NTA":"Steinway"}},{"type":"Feature","id":157,"geometry":{"type":"Point","coordinates":[1015933.9559769779,214654.14160755277]},"properties":{"OBJECTID":157,"FacilityName":"Engine 307/Ladder 154","FacilityAddress":"81-17 Northern Blvd.","Borough":"Queens","Postcode":11372,"Latitude":40.755803999999998,"Longitude":-73.885638999999998,"Community_Board":403,"Community_Council":25,"Census_Tract":327,"BIN":4026949,"BBL":4011770036,"NTA":"Jackson Heights"}},{"type":"Feature","id":158,"geometry":{"type":"Point","coordinates":[1021569.8072380573,211152.17288972437]},"properties":{"OBJECTID":158,"FacilityName":"Engine 289/Ladder 138","FacilityAddress":"97-28 43rd Avenue","Borough":"Queens","Postcode":11368,"Latitude":40.746169999999999,"Longitude":-73.865316000000007,"Community_Board":404,"Community_Council":21,"Census_Tract":409,"BIN":4040712,"BBL":4016280018,"NTA":"North Corona"}},{"type":"Feature","id":159,"geometry":{"type":"Point","coordinates":[1020534.0616061389,217073.56065322459]},"properties":{"OBJECTID":159,"FacilityName":"Engine 316","FacilityAddress":"27-12 Kearney Street","Borough":"Queens","Postcode":11369,"Latitude":40.762427000000002,"Longitude":-73.869022000000001,"Community_Board":403,"Community_Council":21,"Census_Tract":367,"BIN":4041276,"BBL":4016580005,"NTA":"East Elmhurst"}},{"type":"Feature","id":160,"geometry":{"type":"Point","coordinates":[1025280.1170746386,208150.23401172459]},"properties":{"OBJECTID":160,"FacilityName":"Division 14/Engine 324","FacilityAddress":"108-01 Horace Harding Exp.","Borough":"Queens","Postcode":11368,"Latitude":40.737914000000004,"Longitude":-73.851944000000003,"Community_Board":404,"Community_Council":21,"Census_Tract":43701,"BIN":4048310,"BBL":4019640065,"NTA":"Corona"}},{"type":"Feature","id":161,"geometry":{"type":"Point","coordinates":[1011688.0067917258,209171.96261130273]},"properties":{"OBJECTID":161,"FacilityName":"Engine 292/Rescue 4","FacilityAddress":"64-18 Queens Blvd.","Borough":"Queens","Postcode":11377,"Latitude":40.740771000000002,"Longitude":-73.900987000000001,"Community_Board":402,"Community_Council":26,"Census_Tract":245,"BIN":4053652,"BBL":4023250037,"NTA":"Woodside"}},{"type":"Feature","id":162,"geometry":{"type":"Point","coordinates":[1013011.1714682281,203826.92868196964]},"properties":{"OBJECTID":162,"FacilityName":"Squad 288","FacilityAddress":"56-29 68th Street","Borough":"Queens","Postcode":11378,"Latitude":40.726095999999998,"Longitude":-73.896235000000004,"Community_Board":405,"Community_Council":30,"Census_Tract":511,"BIN":4055348,"BBL":4023950004,"NTA":"Maspeth"}},{"type":"Feature","id":163,"geometry":{"type":"Point","coordinates":[1017814.0568755567,207606.83910115063]},"properties":{"OBJECTID":163,"FacilityName":"Battalion 46/Engine 287/Ladder 136","FacilityAddress":"86-53 Grand Avenue","Borough":"Queens","Postcode":11373,"Latitude":40.736454000000002,"Longitude":-73.878888000000003,"Community_Board":404,"Community_Council":25,"Census_Tract":475,"BIN":4057367,"BBL":4024770026,"NTA":"Elmhurst"}},{"type":"Feature","id":164,"geometry":{"type":"Point","coordinates":[1029238.8283172995,200969.71293972433]},"properties":{"OBJECTID":164,"FacilityName":"Engine 305/Ladder 151","FacilityAddress":"111-02 Queens Blvd.","Borough":"Queens","Postcode":11375,"Latitude":40.718186000000003,"Longitude":-73.837706999999995,"Community_Board":406,"Community_Council":29,"Census_Tract":76901,"BIN":4078827,"BBL":4032940020,"NTA":"Forest Hills"}},{"type":"Feature","id":165,"geometry":{"type":"Point","coordinates":[1015677.9305703938,194766.05244681239]},"properties":{"OBJECTID":165,"FacilityName":"Engine 286/Ladder 135","FacilityAddress":"66-44 Myrtle Avenue","Borough":"Queens","Postcode":11385,"Latitude":40.701217,"Longitude":-73.886656000000002,"Community_Board":405,"Community_Council":30,"Census_Tract":629,"BIN":4090228,"BBL":4037000021,"NTA":"Glendale"}},{"type":"Feature","id":166,"geometry":{"type":"Point","coordinates":[1018920.0254641324,198909.98543189466]},"properties":{"OBJECTID":166,"FacilityName":"Engine 319","FacilityAddress":"78-11 67th Road","Borough":"Queens","Postcode":11379,"Latitude":40.712578999999998,"Longitude":-73.874942000000004,"Community_Board":405,"Community_Council":30,"Census_Tract":621,"BIN":4091550,"BBL":4037760056,"NTA":"Middle Village"}},{"type":"Feature","id":167,"geometry":{"type":"Point","coordinates":[1026320.939468056,225278.95992481709]},"properties":{"OBJECTID":167,"FacilityName":"Engine 297/Ladder 130","FacilityAddress":"119-11 14th Road","Borough":"Queens","Postcode":11356,"Latitude":40.784922999999999,"Longitude":-73.848080999999993,"Community_Board":407,"Community_Council":19,"Census_Tract":929,"BIN":4098032,"BBL":4040540017,"NTA":"College Point"}},{"type":"Feature","id":168,"geometry":{"type":"Point","coordinates":[1035216.0538956374,226774.12425731122]},"properties":{"OBJECTID":168,"FacilityName":"Engine 295/Ladder 144","FacilityAddress":"12-49 149th Street","Borough":"Queens","Postcode":11357,"Latitude":40.788980000000002,"Longitude":-73.815949000000003,"Community_Board":407,"Community_Council":19,"Census_Tract":981,"BIN":4102462,"BBL":4045050007,"NTA":"Whitestone"}},{"type":"Feature","id":169,"geometry":{"type":"Point","coordinates":[1032295.9898538888,216162.03262063861]},"properties":{"OBJECTID":169,"FacilityName":"Engine 273/Ladder 129","FacilityAddress":"40-18 Union Street","Borough":"Queens","Postcode":11354,"Latitude":40.759869000000002,"Longitude":-73.826570000000004,"Community_Board":407,"Community_Council":20,"Census_Tract":853,"BIN":4113561,"BBL":4050190066,"NTA":"Flushing"}},{"type":"Feature","id":170,"geometry":{"type":"Point","coordinates":[1036150.7692178041,217127.80365498364]},"properties":{"OBJECTID":170,"FacilityName":"Battalion 52/Engine 274","FacilityAddress":"41-20 Murray Street","Borough":"Queens","Postcode":11355,"Latitude":40.762498000000001,"Longitude":-73.812647999999996,"Community_Board":407,"Community_Council":20,"Census_Tract":1167,"BIN":4114925,"BBL":4050580037,"NTA":"Murray Hill"}},{"type":"Feature","id":171,"geometry":{"type":"Point","coordinates":[1043255.8918185532,217440.24331881106]},"properties":{"OBJECTID":171,"FacilityName":"Engine 320/Ladder 167","FacilityAddress":"36-18 Francis Lewis Blvd.","Borough":"Queens","Postcode":11358,"Latitude":40.763311000000002,"Longitude":-73.786997,"Community_Board":411,"Community_Council":19,"Census_Tract":1139,"BIN":4120143,"BBL":4053190008,"NTA":"Auburndale"}},{"type":"Feature","id":172,"geometry":{"type":"Point","coordinates":[1048052.9353740513,217683.00530047715]},"properties":{"OBJECTID":172,"FacilityName":"Engine 306","FacilityAddress":"40-18 214th Place","Borough":"Queens","Postcode":11361,"Latitude":40.763944000000002,"Longitude":-73.769677999999999,"Community_Board":411,"Community_Council":19,"Census_Tract":1123,"BIN":4138284,"BBL":4062880032,"NTA":"Bayside-Bayside Hills"}},{"type":"Feature","id":173,"geometry":{"type":"Point","coordinates":[1037539.0131604671,201687.11865714192]},"properties":{"OBJECTID":173,"FacilityName":"Engine 315/Ladder 125","FacilityAddress":"159-06 Union Turnpike","Borough":"Queens","Postcode":11366,"Latitude":40.720109000000001,"Longitude":-73.807759000000004,"Community_Board":408,"Community_Council":24,"Census_Tract":1265,"BIN":4148377,"BBL":4068540028,"NTA":"Pomonok-Flushing Heights-Hillcrest"}},{"type":"Feature","id":174,"geometry":{"type":"Point","coordinates":[1041507.9245139658,208271.98311206698]},"properties":{"OBJECTID":174,"FacilityName":"Engine 299/Ladder 152","FacilityAddress":"61-20 Utopia Parkway","Borough":"Queens","Postcode":11365,"Latitude":40.738157999999999,"Longitude":-73.793385000000001,"Community_Board":408,"Community_Council":24,"Census_Tract":1341,"BIN":4148798,"BBL":4068910003,"NTA":"Fresh Meadows-Utopia"}},{"type":"Feature","id":175,"geometry":{"type":"Point","coordinates":[1051867.4329943806,211521.88376447558]},"properties":{"OBJECTID":175,"FacilityName":"Battalion 53/Engine 326/Ladder 160","FacilityAddress":"64-04 Springfield Blvd.","Borough":"Queens","Postcode":11364,"Latitude":40.747005000000001,"Longitude":-73.755970000000005,"Community_Board":411,"Community_Council":23,"Census_Tract":1367,"BIN":4162454,"BBL":4076210012,"NTA":"Oakland Gardens"}},{"type":"Feature","id":176,"geometry":{"type":"Point","coordinates":[1055626.2325633913,218733.70923581719]},"properties":{"OBJECTID":176,"FacilityName":"Engine 313/Ladder 164","FacilityAddress":"44-01 244th Street","Borough":"Queens","Postcode":11363,"Latitude":40.766770000000001,"Longitude":-73.742328000000001,"Community_Board":411,"Community_Council":19,"Census_Tract":1479,"BIN":4168901,"BBL":4081120192,"NTA":"Douglas Manor-Douglaston-Little Neck"}},{"type":"Feature","id":177,"geometry":{"type":"Point","coordinates":[1062923.0234159678,210633.79991072416]},"properties":{"OBJECTID":177,"FacilityName":"Engine 251","FacilityAddress":"254-20 Union Turnpike","Borough":"Queens","Postcode":11004,"Latitude":40.744475999999999,"Longitude":-73.716081000000003,"Community_Board":413,"Community_Council":23,"Census_Tract":157902,"BIN":4177508,"BBL":4086910013,"NTA":"Glen Oaks-Floral Park-New Hyde Park"}},{"type":"Feature","id":178,"geometry":{"type":"Point","coordinates":[1024203.9371403903,190186.93069955707]},"properties":{"OBJECTID":178,"FacilityName":"Engine 293","FacilityAddress":"89-40 87th Street","Borough":"Queens","Postcode":11421,"Latitude":40.688614000000001,"Longitude":-73.855934000000005,"Community_Board":409,"Community_Council":32,"Census_Tract":8,"BIN":4185536,"BBL":4089680025,"NTA":"Woodhaven"}},{"type":"Feature","id":179,"geometry":{"type":"Point","coordinates":[1028111.0526857227,187974.90329948068]},"properties":{"OBJECTID":179,"FacilityName":"Engine 285/Ladder 142","FacilityAddress":"103-17 98th Street","Borough":"Queens","Postcode":11417,"Latitude":40.682524000000001,"Longitude":-73.841859999999997,"Community_Board":410,"Community_Council":32,"Census_Tract":4002,"BIN":4189682,"BBL":4091210072,"NTA":"Ozone Park"}},{"type":"Feature","id":180,"geometry":{"type":"Point","coordinates":[1026888.9320984781,192455.80477072299]},"properties":{"OBJECTID":180,"FacilityName":"Engine 294/Ladder 143","FacilityAddress":"101-02 Jamaica Avenue","Borough":"Queens","Postcode":11418,"Latitude":40.694828999999999,"Longitude":-73.846238,"Community_Board":409,"Community_Council":32,"Census_Tract":28,"BIN":4194106,"BBL":4092860006,"NTA":"Richmond Hill"}},{"type":"Feature","id":181,"geometry":{"type":"Point","coordinates":[1032535.0123417228,192636.87789939344]},"properties":{"OBJECTID":181,"FacilityName":"Division 13/Squad 270","FacilityAddress":"91-45 121st Street","Borough":"Queens","Postcode":11418,"Latitude":40.695296999999997,"Longitude":-73.825875999999994,"Community_Board":409,"Community_Council":29,"Census_Tract":14202,"BIN":4196913,"BBL":4093750007,"NTA":"Richmond Hill"}},{"type":"Feature","id":182,"geometry":{"type":"Point","coordinates":[1033240.7904577255,188487.84453080595]},"properties":{"OBJECTID":182,"FacilityName":"Battalion 51/Engine 308","FacilityAddress":"107-12 Lefferts Blvd.","Borough":"Queens","Postcode":11419,"Latitude":40.683905000000003,"Longitude":-73.823361000000006,"Community_Board":410,"Community_Council":28,"Census_Tract":106,"BIN":4205407,"BBL":4095980010,"NTA":"South Ozone Park"}},{"type":"Feature","id":183,"geometry":{"type":"Point","coordinates":[1038536.005589053,197138.10118038952]},"properties":{"OBJECTID":183,"FacilityName":"Battalion 50/Engine 298/Ladder 127","FacilityAddress":"153-11 Hillside Avenue","Borough":"Queens","Postcode":11432,"Latitude":40.707616999999999,"Longitude":-73.804198999999997,"Community_Board":408,"Community_Council":24,"Census_Tract":236,"BIN":4207481,"BBL":4097060066,"NTA":"Briarwood-Jamaica Hills"}},{"type":"Feature","id":184,"geometry":{"type":"Point","coordinates":[1037787.9358909726,192003.02286788821]},"properties":{"OBJECTID":184,"FacilityName":"Engine 303/Ladder 126","FacilityAddress":"104-12 Princeton Street","Borough":"Queens","Postcode":11435,"Latitude":40.693527000000003,"Longitude":-73.806938000000002,"Community_Board":412,"Community_Council":28,"Census_Tract":204,"BIN":4214846,"BBL":4100460014,"NTA":"Jamaica"}},{"type":"Feature","id":185,"geometry":{"type":"Point","coordinates":[1044951.123008132,191991.08424347639]},"properties":{"OBJECTID":185,"FacilityName":"Engine 275/Ladder 133","FacilityAddress":"111-36 Merrick Blvd.","Borough":"Queens","Postcode":11433,"Latitude":40.693447999999997,"Longitude":-73.781107000000006,"Community_Board":412,"Community_Council":27,"Census_Tract":266,"BIN":4217371,"BBL":4102080045,"NTA":"South Jamaica"}},{"type":"Feature","id":186,"geometry":{"type":"Point","coordinates":[1049929.9808325469,199661.91306188703]},"properties":{"OBJECTID":186,"FacilityName":"Engine 301/Ladder 150","FacilityAddress":"91-04 197th Street","Borough":"Queens","Postcode":11423,"Latitude":40.714466999999999,"Longitude":-73.763077999999993,"Community_Board":412,"Community_Council":23,"Census_Tract":484,"BIN":4222434,"BBL":4104640025,"NTA":"Hollis"}},{"type":"Feature","id":187,"geometry":{"type":"Point","coordinates":[1057449.0966998041,200572.38400997221]},"properties":{"OBJECTID":187,"FacilityName":"Engine 304/Ladder 162","FacilityAddress":"218-44 97th Avenue","Borough":"Queens","Postcode":11429,"Latitude":40.716906999999999,"Longitude":-73.735945000000001,"Community_Board":413,"Community_Council":27,"Census_Tract":568,"BIN":4230875,"BBL":4107700023,"NTA":"Queens Village"}},{"type":"Feature","id":188,"geometry":{"type":"Point","coordinates":[1041092.0063825548,184915.93303947151]},"properties":{"OBJECTID":188,"FacilityName":"Engine 302/Ladder 155","FacilityAddress":"143-15 Rockaway Blvd.","Borough":"Queens","Postcode":11436,"Latitude":40.674053999999998,"Longitude":-73.795083000000005,"Community_Board":412,"Community_Council":28,"Census_Tract":182,"BIN":4261544,"BBL":4120460002,"NTA":"Baisley Park"}},{"type":"Feature","id":189,"geometry":{"type":"Point","coordinates":[1052011.1371033043,191890.98011296988]},"properties":{"OBJECTID":189,"FacilityName":"Battalion 54/Engine 317/Ladder 165","FacilityAddress":"117-11 196th Street","Borough":"Queens","Postcode":11412,"Latitude":40.693122000000002,"Longitude":-73.755649000000005,"Community_Board":412,"Community_Council":27,"Census_Tract":394,"BIN":4271743,"BBL":4126170040,"NTA":"St. Albans"}},{"type":"Feature","id":190,"geometry":{"type":"Point","coordinates":[1050878.9730290473,181135.01113939285]},"properties":{"OBJECTID":190,"FacilityName":"Engine 311/Ladder 158","FacilityAddress":"145-50 Springfield Blvd.","Borough":"Queens","Postcode":11413,"Latitude":40.663608000000004,"Longitude":-73.759838000000002,"Community_Board":413,"Community_Council":31,"Census_Tract":320,"BIN":4286093,"BBL":4133610200,"NTA":"Springfield Gardens South-Brookville"}},{"type":"Feature","id":191,"geometry":{"type":"Point","coordinates":[1056188.5427904725,181305.3526622206]},"properties":{"OBJECTID":191,"FacilityName":"Engine 314","FacilityAddress":"142-04 Brookville Blvd.","Borough":"Queens","Postcode":11422,"Latitude":40.664034000000001,"Longitude":-73.740697999999995,"Community_Board":413,"Community_Council":31,"Census_Tract":654,"BIN":4287743,"BBL":4135380015,"NTA":"Rosedale"}},{"type":"Feature","id":192,"geometry":{"type":"Point","coordinates":[1028776.9834404737,179494.90057447553]},"properties":{"OBJECTID":192,"FacilityName":"Engine 331/Ladder 173","FacilityAddress":"158-57 Cross Bay Blvd.","Borough":"Queens","Postcode":11414,"Latitude":40.659244999999999,"Longitude":-73.839515000000006,"Community_Board":410,"Community_Council":32,"Census_Tract":892,"BIN":4295071,"BBL":4141630101,"NTA":"Lindenwood-Howard Beach"}},{"type":"Feature","id":193,"geometry":{"type":"Point","coordinates":[1029234.931343466,150896.80816447735]},"properties":{"OBJECTID":193,"FacilityName":"Engine 268/Ladder 137","FacilityAddress":"257 Beach 116th Street","Borough":"Queens","Postcode":11694,"Latitude":40.580747000000002,"Longitude":-73.838054999999997,"Community_Board":414,"Community_Council":32,"Census_Tract":93402,"BIN":4304442,"BBL":4162120017,"NTA":"Breezy Point-Belle Harbor-Rockaway Park-Broad Channel"}},{"type":"Feature","id":194,"geometry":{"type":"Point","coordinates":[1017166.9754925519,145508.06927005947]},"properties":{"OBJECTID":194,"FacilityName":"Engine 329","FacilityAddress":"402 B. 169 Street","Borough":"Queens","Postcode":11695,"Latitude":40.566009000000001,"Longitude":-73.881525999999994,"Community_Board":484,"Community_Council":32,"Census_Tract":918,"BIN":4307098,"BBL":4163250300,"NTA":"park-cemetery-etc-Queens"}},{"type":"Feature","id":195,"geometry":{"type":"Point","coordinates":[1035290.9441658109,152925.66499914229]},"properties":{"OBJECTID":195,"FacilityName":"Engine 266","FacilityAddress":"92-20 Rockaway Beach Blvd.","Borough":"Queens","Postcode":11693,"Latitude":40.586283000000002,"Longitude":-73.816237999999998,"Community_Board":414,"Community_Council":32,"Census_Tract":94202,"BIN":4439014,"BBL":4161270001,"NTA":"Hammels-Arverne-Edgemere"}},{"type":"Feature","id":196,"geometry":{"type":"Point","coordinates":[1010122.8238984644,199082.27806630731]},"properties":{"OBJECTID":196,"FacilityName":"Engine 291/Ladder 140","FacilityAddress":"56-07 Metropolitan Avenue","Borough":"Queens","Postcode":11385,"Latitude":40.713082,"Longitude":-73.906673999999995,"Community_Board":405,"Community_Council":30,"Census_Tract":595,"BIN":4440960,"BBL":4026460018,"NTA":"Ridgewood"}},{"type":"Feature","id":197,"geometry":{"type":"Point","coordinates":[1053078.0175154656,159722.64287497103]},"properties":{"OBJECTID":197,"FacilityName":"Engine 264/Engine 328/Ladder 134","FacilityAddress":"16-15, 16-17, 16-19 Central Ave.","Borough":"Queens","Postcode":11691,"Latitude":40.604818999999999,"Longitude":-73.752129999999994,"Community_Board":414,"Community_Council":31,"Census_Tract":103202,"BIN":4529057,"BBL":4155590025,"NTA":"Far Rockaway-Bayswater"}},{"type":"Feature","id":198,"geometry":{"type":"Point","coordinates":[1046192.0972322226,228361.9399793148]},"properties":{"OBJECTID":198,"FacilityName":"Queens Borough Command","FacilityAddress":"420A Weaver Ave","Borough":"Queens","Postcode":11359,"Latitude":40.793267999999998,"Longitude":-73.776297,"Community_Board":407,"Community_Council":19,"Census_Tract":999,"BIN":4538413,"BBL":4059170001,"NTA":"Ft. Totten-Bay Terrace-Clearview"}},{"type":"Feature","id":199,"geometry":{"type":"Point","coordinates":[1045581.694253549,155592.98118680716]},"properties":{"OBJECTID":199,"FacilityName":"Battalion 47/Engine 265/Ladder 121","FacilityAddress":"48-06 Rockaway Beach Blvd","Borough":"Queens","Postcode":11691,"Latitude":40.593539,"Longitude":-73.779163999999994,"Community_Board":414,"Community_Council":31,"Census_Tract":97204,"BIN":4539800,"BBL":4158400001,"NTA":"Hammels-Arverne-Edgemere"}},{"type":"Feature","id":200,"geometry":{"type":"Point","coordinates":[959911.76552814245,171561.12116648257]},"properties":{"OBJECTID":200,"FacilityName":"Engine 155/Ladder 78","FacilityAddress":"14 Brighton Avenue","Borough":"Staten Island","Postcode":10301,"Latitude":40.637546999999998,"Longitude":-74.087693999999999,"Community_Board":501,"Community_Council":49,"Census_Tract":77,"BIN":5002472,"BBL":5001030020,"NTA":"West New Brighton-New Brighton-St. George"}},{"type":"Feature","id":201,"geometry":{"type":"Point","coordinates":[950378.03787647188,170420.16773973405]},"properties":{"OBJECTID":201,"FacilityName":"Battalion 22/Ladder 79","FacilityAddress":"1189 Castleton Avenue","Borough":"Staten Island","Postcode":10310,"Latitude":40.634383999999997,"Longitude":-74.122039000000001,"Community_Board":501,"Community_Council":49,"Census_Tract":13302,"BIN":5005308,"BBL":5001980136,"NTA":"West New Brighton-New Brighton-St. George"}},{"type":"Feature","id":202,"geometry":{"type":"Point","coordinates":[951852.97193446755,169179.80998422205]},"properties":{"OBJECTID":202,"FacilityName":"Engine 156","FacilityAddress":"412 Broadway","Borough":"Staten Island","Postcode":10310,"Latitude":40.630985000000003,"Longitude":-74.116719000000003,"Community_Board":501,"Community_Council":49,"Census_Tract":125,"BIN":5005815,"BBL":5002170050,"NTA":"West New Brighton-New Brighton-St. George"}},{"type":"Feature","id":203,"geometry":{"type":"Point","coordinates":[947931.81704713404,163451.57570581138]},"properties":{"OBJECTID":203,"FacilityName":"Engine 163/Ladder 83","FacilityAddress":"875 Jewett Avenue","Borough":"Staten Island","Postcode":10314,"Latitude":40.615246999999997,"Longitude":-74.130814999999998,"Community_Board":501,"Community_Council":50,"Census_Tract":151,"BIN":5010816,"BBL":5003770018,"NTA":"Westerleigh"}},{"type":"Feature","id":204,"geometry":{"type":"Point","coordinates":[962683.68091605604,166999.31762605906]},"properties":{"OBJECTID":204,"FacilityName":"Engine 153/Ladder 77","FacilityAddress":"74 Broad Street","Borough":"Staten Island","Postcode":10304,"Latitude":40.625033000000002,"Longitude":-74.077691999999999,"Community_Board":501,"Community_Council":49,"Census_Tract":27,"BIN":5013836,"BBL":5005290009,"NTA":"Stapleton-Rosebank"}},{"type":"Feature","id":205,"geometry":{"type":"Point","coordinates":[949883.13401064277,149178.09965963662]},"properties":{"OBJECTID":205,"FacilityName":"Engine 165/Ladder 85","FacilityAddress":"3067 Richmond Road","Borough":"Staten Island","Postcode":10306,"Latitude":40.576076999999998,"Longitude":-74.123714000000007,"Community_Board":502,"Community_Council":50,"Census_Tract":181,"BIN":5023532,"BBL":5009490001,"NTA":"Todt Hill-Emerson Hill-Heartland Village-Lighthouse Hill"}},{"type":"Feature","id":206,"geometry":{"type":"Point","coordinates":[946672.33006480336,171083.9525013864]},"properties":{"OBJECTID":206,"FacilityName":"Engine 157/Ladder 80","FacilityAddress":"1573 Castleton Avenue","Borough":"Staten Island","Postcode":10302,"Latitude":40.636190999999997,"Longitude":-74.135394000000005,"Community_Board":501,"Community_Council":49,"Census_Tract":207,"BIN":5025442,"BBL":5010800002,"NTA":"Port Richmond"}},{"type":"Feature","id":207,"geometry":{"type":"Point","coordinates":[939827.99007897079,170758.12769372761]},"properties":{"OBJECTID":207,"FacilityName":"Engine 158","FacilityAddress":"65 Harbor Road","Borough":"Staten Island","Postcode":10303,"Latitude":40.635264999999997,"Longitude":-74.160051999999993,"Community_Board":501,"Community_Council":49,"Census_Tract":223,"BIN":5027755,"BBL":5012270025,"NTA":"Mariner's Harbor-Arlington-Port Ivory-Graniteville"}},{"type":"Feature","id":208,"geometry":{"type":"Point","coordinates":[940335.96740947664,163105.97239439189]},"properties":{"OBJECTID":208,"FacilityName":"Engine 166/Ladder 86","FacilityAddress":"1400 Richmond Avenue","Borough":"Staten Island","Postcode":10314,"Latitude":40.614263999999999,"Longitude":-74.158171999999993,"Community_Board":502,"Community_Council":50,"Census_Tract":29104,"BIN":5031692,"BBL":5016120005,"NTA":"New Springville-Bloomfield-Travis"}},{"type":"Feature","id":209,"geometry":{"type":"Point","coordinates":[934115.74297329783,157167.08991523087]},"properties":{"OBJECTID":209,"FacilityName":"Staten Island Borough Command/Squad 8","FacilityAddress":"3730 Victory Boulevard","Borough":"Staten Island","Postcode":10314,"Latitude":40.597929999999998,"Longitude":-74.180531999999999,"Community_Board":502,"Community_Council":50,"Census_Tract":29102,"BIN":5041882,"BBL":5026650025,"NTA":"New Springville-Bloomfield-Travis"}},{"type":"Feature","id":210,"geometry":{"type":"Point","coordinates":[964683.16215330362,162145.89262163639]},"properties":{"OBJECTID":210,"FacilityName":"Battalion 21/Engine 152","FacilityAddress":"256 Hylan Blvd.","Borough":"Staten Island","Postcode":10305,"Latitude":40.611716000000001,"Longitude":-74.070475000000002,"Community_Board":501,"Community_Council":49,"Census_Tract":8,"BIN":5042846,"BBL":5028560015,"NTA":"Stapleton-Rosebank"}},{"type":"Feature","id":211,"geometry":{"type":"Point","coordinates":[964844.29437696934,156697.99964605272]},"properties":{"OBJECTID":211,"FacilityName":"Engine 161/Ladder 81","FacilityAddress":"278 McClean Avenue","Borough":"Staten Island","Postcode":10305,"Latitude":40.596763000000003,"Longitude":-74.069879,"Community_Board":502,"Community_Council":50,"Census_Tract":74,"BIN":5045654,"BBL":5031080025,"NTA":"Grasmere-Arrochar-Ft. Wadsworth"}},{"type":"Feature","id":212,"geometry":{"type":"Point","coordinates":[959470.91339147091,160549.06740322709]},"properties":{"OBJECTID":212,"FacilityName":"Division 8/Engine 160/Rescue 5","FacilityAddress":"1850 Clove Road","Borough":"Staten Island","Postcode":10304,"Latitude":40.607320000000001,"Longitude":-74.089241999999999,"Community_Board":502,"Community_Council":50,"Census_Tract":50,"BIN":5046179,"BBL":5031530038,"NTA":"Grasmere-Arrochar-Ft. Wadsworth"}},{"type":"Feature","id":213,"geometry":{"type":"Point","coordinates":[956308.01223696768,154502.5020685643]},"properties":{"OBJECTID":213,"FacilityName":"Engine 159","FacilityAddress":"1592 Richmond Road","Borough":"Staten Island","Postcode":10304,"Latitude":40.590713999999998,"Longitude":-74.100607999999994,"Community_Board":502,"Community_Council":50,"Census_Tract":9602,"BIN":5048682,"BBL":5033060008,"NTA":"Old Town-Dongan Hills-South Beach"}},{"type":"Feature","id":214,"geometry":{"type":"Point","coordinates":[943281.65738421679,137175.43993797898]},"properties":{"OBJECTID":214,"FacilityName":"Battalion 23/Engine 162/Ladder 82","FacilityAddress":"256 Nelson Ave.","Borough":"Staten Island","Postcode":10308,"Latitude":40.543104,"Longitude":-74.147405000000006,"Community_Board":503,"Community_Council":51,"Census_Tract":15601,"BIN":5067428,"BBL":5052710031,"NTA":"Great Kills"}},{"type":"Feature","id":215,"geometry":{"type":"Point","coordinates":[935487.06240913272,141229.07093830407]},"properties":{"OBJECTID":215,"FacilityName":"Engine 167/Ladder 87","FacilityAddress":"345 Annadale Road","Borough":"Staten Island","Postcode":10312,"Latitude":40.554191000000003,"Longitude":-74.175478999999996,"Community_Board":503,"Community_Council":51,"Census_Tract":17012,"BIN":5075428,"BBL":5056420006,"NTA":"Annadale-Huguenot-Prince's Bay-Eltingville"}},{"type":"Feature","id":216,"geometry":{"type":"Point","coordinates":[929752.84815581143,134401.76667955518]},"properties":{"OBJECTID":216,"FacilityName":"Engine 164/Ladder 84","FacilityAddress":"1560 Drumgoole Road West","Borough":"Staten Island","Postcode":10312,"Latitude":40.535418,"Longitude":-74.196059000000005,"Community_Board":503,"Community_Council":51,"Census_Tract":20804,"BIN":5083491,"BBL":5068280065,"NTA":"Rossville-Woodrow"}},{"type":"Feature","id":217,"geometry":{"type":"Point","coordinates":[917808.1371371448,126168.91569122672]},"properties":{"OBJECTID":217,"FacilityName":"Engine 151/Ladder 76","FacilityAddress":"7219 Amboy Road","Borough":"Staten Island","Postcode":10307,"Latitude":40.512739000000003,"Longitude":-74.238950000000003,"Community_Board":503,"Community_Council":51,"Census_Tract":248,"BIN":5089056,"BBL":5080400010,"NTA":"Charleston-Richmond Valley-Tottenville"}},{"type":"Feature","id":218,"geometry":{"type":"Point","coordinates":[925037.19682596624,141161.53104715049]},"properties":{"OBJECTID":218,"FacilityName":"Engine 168","FacilityAddress":"1100 Rossville Ave","Borough":"Staten Island","Postcode":10309,"Latitude":40.553941999999999,"Longitude":-74.213082999999997,"Community_Board":503,"Community_Council":51,"Census_Tract":20801,"BIN":5154879,"BBL":5070670252,"NTA":"Rossville-Woodrow"}},{"type":"Feature","id":219,"geometry":{"type":"Point","coordinates":[964145.85482896864,168790.91640506685]},"properties":{"OBJECTID":219,"FacilityName":"Marine 9","FacilityAddress":"305 Front Street","Borough":"Staten Island","Postcode":10304,"Latitude":40.629953999999998,"Longitude":-74.072429999999997,"Community_Board":501,"Community_Council":49,"Census_Tract":21,"BIN":5169276,"BBL":5004870100,"NTA":"Stapleton-Rosebank"}}]}