{"type":"FeatureCollection","crs":{"type":"name","properties":{"name":"EPSG:2263"}},"features":[{"type":"Feature","id":1,"geometry":{"type":"Point","coordinates":[990141.49804756045,202345.63538472354]},"properties":{"OBJECTID":1,"ATS":"01M015","Building_C":"M015","Location_C":"M015","Name":"P.S. 015 Roberto Clemente","Geographic":1,"Latitude":40.722074999999997,"Longitude":-73.978746999999998}},{"type":"Feature","id":2,"geometry":{"type":"Point","coordinates":[988044.60755629838,202064.68253456056]},"properties":{"OBJECTID":2,"ATS":"01M020","Building_C":"M020","Location_C":"M020","Name":"P.S. 020 Anna Silver","Geographic":1,"Latitude":40.721305000000001,"Longitude":-73.986311999999998}},{"type":"Feature","id":3,"geometry":{"type":"Point","coordinates":[991163.6400321424,203778.8178858161]},"properties":{"OBJECTID":3,"ATS":"01M034","Building_C":"M034","Location_C":"M034","Name":"P.S. 034 Franklin D. Roosevelt","Geographic":1,"Latitude":40.726008,"Longitude":-73.975058000000004}},{"type":"Feature","id":4,"geometry":{"type":"Point","coordinates":[988071.59241047502,203206.86364914477]},"properties":{"OBJECTID":4,"ATS":"01M063","Building_C":"M063","Location_C":"M063","Name":"The STAR Academy - P.S.63","Geographic":1,"Latitude":40.724440000000001,"Longitude":-73.986214000000004}},{"type":"Feature","id":5,"geometry":{"type":"Point","coordinates":[989351.42876155674,202729.82523314655]},"properties":{"OBJECTID":5,"ATS":"01M064","Building_C":"M064","Location_C":"M064","Name":"P.S. 064 Robert Simon","Geographic":1,"Latitude":40.723129999999998,"Longitude":-73.981596999999994}},{"type":"Feature","id":6,"geometry":{"type":"Point","coordinates":[989850.11149121821,200205.12391772866]},"properties":{"OBJECTID":6,"ATS":"01M110","Building_C":"M110","Location_C":"M110","Name":"P.S. 110 Florence Nightingale","Geographic":1,"Latitude":40.716200000000001,"Longitude":-73.979799999999997}},{"type":"Feature","id":7,"geometry":{"type":"Point","coordinates":[988726.41951288283,199493.71818831563]},"properties":{"OBJECTID":7,"ATS":"01M134","Building_C":"M134","Location_C":"M134","Name":"P.S. 134 Henrietta Szold","Geographic":1,"Latitude":40.714247999999998,"Longitude":-73.983853999999994}},{"type":"Feature","id":8,"geometry":{"type":"Point","coordinates":[988749.65273413062,201278.94165197015]},"properties":{"OBJECTID":8,"ATS":"01M140","Building_C":"M140","Location_C":"M140","Name":"P.S. 140 Nathan Straus","Geographic":1,"Latitude":40.719147999999997,"Longitude":-73.983768999999995}},{"type":"Feature","id":9,"geometry":{"type":"Point","coordinates":[988653.5318633914,200904.75637672842]},"properties":{"OBJECTID":9,"ATS":"01M142","Building_C":"M142","Location_C":"M142","Name":"P.S. 142 Amalia Castro","Geographic":1,"Latitude":40.718120999999996,"Longitude":-73.984116}},{"type":"Feature","id":10,"geometry":{"type":"Point","coordinates":[988287.48961646855,198355.83759005368]},"properties":{"OBJECTID":10,"ATS":"01M184","Building_C":"M137","Location_C":"M184","Name":"P.S. 184m Shuang Wen","Geographic":1,"Latitude":40.711125000000003,"Longitude":-73.985438000000002}},{"type":"Feature","id":11,"geometry":{"type":"Point","coordinates":[990520.6209769696,201548.9388154]},"properties":{"OBJECTID":11,"ATS":"01M188","Building_C":"M188","Location_C":"M188","Name":"P.S. 188 The Island School","Geographic":1,"Latitude":40.719887999999997,"Longitude":-73.977379999999997}},{"type":"Feature","id":12,"geometry":{"type":"Point","coordinates":[988117.41548155248,199170.81693123281]},"properties":{"OBJECTID":12,"ATS":"01M292","Building_C":"M056","Location_C":"M292","Name":"Orchard Collegiate Academy","Geographic":1,"Latitude":40.713361999999996,"Longitude":-73.986051000000003}},{"type":"Feature","id":13,"geometry":{"type":"Point","coordinates":[988547.42741680145,205235.90224197507]},"properties":{"OBJECTID":13,"ATS":"01M315","Building_C":"M019","Location_C":"M315","Name":"The East Village Community School","Geographic":1,"Latitude":40.730009000000003,"Longitude":-73.984495999999993}},{"type":"Feature","id":14,"geometry":{"type":"Point","coordinates":[988117.41548155248,199170.81693123281]},"properties":{"OBJECTID":14,"ATS":"01M332","Building_C":"M056","Location_C":"M332","Name":"University Neighborhood Middle School","Geographic":1,"Latitude":40.713361999999996,"Longitude":-73.986051000000003}},{"type":"Feature","id":15,"geometry":{"type":"Point","coordinates":[990277.6582083106,204335.64387188852]},"properties":{"OBJECTID":15,"ATS":"01M361","Building_C":"M061","Location_C":"M361","Name":"The Children's Workshop School","Geographic":1,"Latitude":40.727536999999998,"Longitude":-73.978254000000007}},{"type":"Feature","id":16,"geometry":{"type":"Point","coordinates":[988071.59241047502,203206.86364914477]},"properties":{"OBJECTID":16,"ATS":"01M363","Building_C":"M063","Location_C":"M363","Name":"Neighborhood School","Geographic":1,"Latitude":40.724440000000001,"Longitude":-73.986214000000004}},{"type":"Feature","id":17,"geometry":{"type":"Point","coordinates":[989351.42876155674,202729.82523314655]},"properties":{"OBJECTID":17,"ATS":"01M364","Building_C":"M064","Location_C":"M364","Name":"Earth School","Geographic":1,"Latitude":40.723129999999998,"Longitude":-73.981596999999994}},{"type":"Feature","id":18,"geometry":{"type":"Point","coordinates":[988120.63135439157,201603.81633031368]},"properties":{"OBJECTID":18,"ATS":"01M378","Building_C":"M025","Location_C":"M378","Name":"School for Global Leaders","Geographic":1,"Latitude":40.720039999999997,"Longitude":-73.986037999999994}},{"type":"Feature","id":19,"geometry":{"type":"Point","coordinates":[988650.59158055484,198772.69436790049]},"properties":{"OBJECTID":19,"ATS":"01M448","Building_C":"M446","Location_C":"M448","Name":"University Neighborhood High School","Geographic":1,"Latitude":40.712268999999999,"Longitude":-73.984127999999998}},{"type":"Feature","id":20,"geometry":{"type":"Point","coordinates":[989108.45319764316,204923.77622580528]},"properties":{"OBJECTID":20,"ATS":"01M450","Building_C":"M060","Location_C":"M450","Name":"East Side Community School","Geographic":1,"Latitude":40.729151999999999,"Longitude":-73.982472000000001}},{"type":"Feature","id":21,"geometry":{"type":"Point","coordinates":[986892.55277380347,202468.93664731085]},"properties":{"OBJECTID":21,"ATS":"01M458","Building_C":"M510","Location_C":"M458","Name":"Forsyth Satellite Academy","Geographic":1,"Latitude":40.722414999999998,"Longitude":-73.990468000000007}},{"type":"Feature","id":22,"geometry":{"type":"Point","coordinates":[988120.63135439157,201603.81633031368]},"properties":{"OBJECTID":22,"ATS":"01M515","Building_C":"M025","Location_C":"M515","Name":"Lower East Side Preparatory High School","Geographic":1,"Latitude":40.720039999999997,"Longitude":-73.986037999999994}},{"type":"Feature","id":23,"geometry":{"type":"Point","coordinates":[989910.54837821424,201376.82498639822]},"properties":{"OBJECTID":23,"ATS":"01M539","Building_C":"M022","Location_C":"M539","Name":"New Explorations into Science, Technology and Math","Geographic":1,"Latitude":40.719416000000002,"Longitude":-73.979580999999996}},{"type":"Feature","id":24,"geometry":{"type":"Point","coordinates":[986892.55277380347,202468.93664731085]},"properties":{"OBJECTID":24,"ATS":"01M650","Building_C":"M510","Location_C":"M650","Name":"Cascades High School","Geographic":1,"Latitude":40.722414999999998,"Longitude":-73.990468000000007}},{"type":"Feature","id":25,"geometry":{"type":"Point","coordinates":[990877.53528939188,200961.73264072835]},"properties":{"OBJECTID":25,"ATS":"01M696","Building_C":"M097","Location_C":"M696","Name":"Bard High School Early College","Geographic":1,"Latitude":40.718276000000003,"Longitude":-73.976093000000006}},{"type":"Feature","id":26,"geometry":{"type":"Point","coordinates":[989351.42876155674,202729.82523314655]},"properties":{"OBJECTID":26,"ATS":"01M839","Building_C":"M064","Location_C":"M839","Name":"Tompkins Square Middle School","Geographic":1,"Latitude":40.723129999999998,"Longitude":-73.981596999999994}},{"type":"Feature","id":27,"geometry":{"type":"Point","coordinates":[984949.57175163925,198874.68268097937]},"properties":{"OBJECTID":27,"ATS":"02M001","Building_C":"M001","Location_C":"M001","Name":"P.S. 001 Alfred E. Smith","Geographic":2,"Latitude":40.71255,"Longitude":-73.997478000000001}},{"type":"Feature","id":28,"geometry":{"type":"Point","coordinates":[986600.45493280888,199004.85236814618]},"properties":{"OBJECTID":28,"ATS":"02M002","Building_C":"M002","Location_C":"M002","Name":"P.S. 002 Meyer London","Geographic":2,"Latitude":40.712907000000001,"Longitude":-73.991523000000001}},{"type":"Feature","id":29,"geometry":{"type":"Point","coordinates":[982601.66437396407,206180.65330523252]},"properties":{"OBJECTID":29,"ATS":"02M003","Building_C":"M003","Location_C":"M003","Name":"P.S. 003 Charrette School","Geographic":2,"Latitude":40.732602999999997,"Longitude":-74.005949000000001}},{"type":"Feature","id":30,"geometry":{"type":"Point","coordinates":[995210.43869705498,222626.85236814618]},"properties":{"OBJECTID":30,"ATS":"02M006","Building_C":"M006","Location_C":"M006","Name":"P.S. 006 Lillie D. Blake","Geographic":2,"Latitude":40.777737000000002,"Longitude":-73.960426999999996}},{"type":"Feature","id":31,"geometry":{"type":"Point","coordinates":[984044.51811555028,210400.65077072382]},"properties":{"OBJECTID":31,"ATS":"02M011","Building_C":"M011","Location_C":"M011","Name":"P.S. 011: The Sarah J. Garnet Elementary School","Geographic":2,"Latitude":40.744185999999999,"Longitude":-74.000743}},{"type":"Feature","id":32,"geometry":{"type":"Point","coordinates":[984184.45714013278,212159.64429998398]},"properties":{"OBJECTID":32,"ATS":"02M033","Building_C":"M033","Location_C":"M033","Name":"P.S. 033 Chelsea Prep","Geographic":2,"Latitude":40.749014000000003,"Longitude":-74.000237999999996}},{"type":"Feature","id":33,"geometry":{"type":"Point","coordinates":[989367.40051439404,207173.93937639892]},"properties":{"OBJECTID":33,"ATS":"02M040","Building_C":"M040","Location_C":"M040","Name":"P.S. 040 Augustus Saint-Gaudens","Geographic":2,"Latitude":40.735328000000003,"Longitude":-73.981536000000006}},{"type":"Feature","id":34,"geometry":{"type":"Point","coordinates":[984501.48406513035,207217.85004973412]},"properties":{"OBJECTID":34,"ATS":"02M041","Building_C":"M041","Location_C":"M041","Name":"P.S. 041 Greenwich Village","Geographic":2,"Latitude":40.73545,"Longitude":-73.999093999999999}},{"type":"Feature","id":35,"geometry":{"type":"Point","coordinates":[986793.55953347683,200177.65120364726]},"properties":{"OBJECTID":35,"ATS":"02M042","Building_C":"M042","Location_C":"M042","Name":"P.S. 042 Benjamin Altman","Geographic":2,"Latitude":40.716126000000003,"Longitude":-73.990825999999998}},{"type":"Feature","id":36,"geometry":{"type":"Point","coordinates":[989424.5306494683,208283.70520147681]},"properties":{"OBJECTID":36,"ATS":"02M047","Building_C":"M047","Location_C":"M047","Name":"47 The American Sign Language and English Secondar","Geographic":2,"Latitude":40.738374,"Longitude":-73.981329000000002}},{"type":"Feature","id":37,"geometry":{"type":"Point","coordinates":[985406.98126988113,216703.99019815028]},"properties":{"OBJECTID":37,"ATS":"02M051","Building_C":"M338","Location_C":"M051","Name":"P.S. 051 Elias Howe","Geographic":2,"Latitude":40.761487000000002,"Longitude":-73.995824999999996}},{"type":"Feature","id":38,"geometry":{"type":"Point","coordinates":[993336.01987372339,215889.92227247357]},"properties":{"OBJECTID":38,"ATS":"02M059","Building_C":"M488","Location_C":"M059","Name":"P.S. 059 Beekman Hill International","Geographic":2,"Latitude":40.759247999999999,"Longitude":-73.967203999999995}},{"type":"Feature","id":39,"geometry":{"type":"Point","coordinates":[997980.45021738112,225280.97698114812]},"properties":{"OBJECTID":39,"ATS":"02M077","Building_C":"M198","Location_C":"M077","Name":"P.S. 77 Lower Lab School","Geographic":2,"Latitude":40.785018000000001,"Longitude":-73.950419999999994}},{"type":"Feature","id":40,"geometry":{"type":"Point","coordinates":[980378.60878072679,200499.894981727]},"properties":{"OBJECTID":40,"ATS":"02M089","Building_C":"M089","Location_C":"M089","Name":"P.S. 89","Geographic":2,"Latitude":40.717010000000002,"Longitude":-74.013966999999994}},{"type":"Feature","id":41,"geometry":{"type":"Point","coordinates":[989506.47832022607,207374.71554964781]},"properties":{"OBJECTID":41,"ATS":"02M104","Building_C":"M104","Location_C":"M104","Name":"J.H.S. 104 Simon Baruch","Geographic":2,"Latitude":40.735878999999997,"Longitude":-73.981033999999994}},{"type":"Feature","id":42,"geometry":{"type":"Point","coordinates":[987082.51892930269,218304.64218056202]},"properties":{"OBJECTID":42,"ATS":"02M111","Building_C":"M111","Location_C":"M111","Name":"P.S. 111 Adolph S. Ochs","Geographic":2,"Latitude":40.765880000000003,"Longitude":-73.989776000000006}},{"type":"Feature","id":43,"geometry":{"type":"Point","coordinates":[998823.58468596637,223617.91961172223]},"properties":{"OBJECTID":43,"ATS":"02M114","Building_C":"M114","Location_C":"M114","Name":"East Side Middle School","Geographic":2,"Latitude":40.780451999999997,"Longitude":-73.947378999999998}},{"type":"Feature","id":44,"geometry":{"type":"Point","coordinates":[990372.55237546563,210519.82933814824]},"properties":{"OBJECTID":44,"ATS":"02M116","Building_C":"M116","Location_C":"M116","Name":"P.S. 116 Mary Lindley Murray","Geographic":2,"Latitude":40.744511000000003,"Longitude":-73.977906000000004}},{"type":"Feature","id":45,"geometry":{"type":"Point","coordinates":[985354.56011489034,199802.64736047387]},"properties":{"OBJECTID":45,"ATS":"02M124","Building_C":"M124","Location_C":"M124","Name":"P.S. 124 Yung Wing","Geographic":2,"Latitude":40.715097,"Longitude":-73.996016999999995}},{"type":"Feature","id":46,"geometry":{"type":"Point","coordinates":[984965.67112888396,198182.82021956146]},"properties":{"OBJECTID":46,"ATS":"02M126","Building_C":"M126","Location_C":"M126","Name":"P.S. 126 Jacob August Riis","Geographic":2,"Latitude":40.710650999999999,"Longitude":-73.997420000000005}},{"type":"Feature","id":47,"geometry":{"type":"Point","coordinates":[984714.43901979923,201100.73597164452]},"properties":{"OBJECTID":47,"ATS":"02M130","Building_C":"M130","Location_C":"M130","Name":"P.S. 130 Hernando De Soto","Geographic":2,"Latitude":40.71866,"Longitude":-73.998326000000006}},{"type":"Feature","id":48,"geometry":{"type":"Point","coordinates":[986022.6253798008,200215.83747898042]},"properties":{"OBJECTID":48,"ATS":"02M131","Building_C":"M131","Location_C":"M131","Name":"M.S. 131","Geographic":2,"Latitude":40.716231000000001,"Longitude":-73.993606999999997}},{"type":"Feature","id":49,"geometry":{"type":"Point","coordinates":[984014.47552472353,198470.63165180385]},"properties":{"OBJECTID":49,"ATS":"02M135","Building_C":"M520","Location_C":"M135","Name":"The Urban Assembly Early College High School of Em","Geographic":2,"Latitude":40.711441000000001,"Longitude":-74.000850999999997}},{"type":"Feature","id":50,"geometry":{"type":"Point","coordinates":[986932.47067296505,217493.98435306549]},"properties":{"OBJECTID":50,"ATS":"02M139","Building_C":"M625","Location_C":"M139","Name":"Stephen T. Mather Building Arts & Craftsmanship Hi","Geographic":2,"Latitude":40.763655,"Longitude":-73.990318000000002}},{"type":"Feature","id":51,"geometry":{"type":"Point","coordinates":[980485.3434753865,196982.26947106421]},"properties":{"OBJECTID":51,"ATS":"02M150","Building_C":"M464","Location_C":"M150","Name":"P.S. 150","Geographic":2,"Latitude":40.707355,"Longitude":-74.013580000000005}},{"type":"Feature","id":52,"geometry":{"type":"Point","coordinates":[998849.61284913123,222705.64354914427]},"properties":{"OBJECTID":52,"ATS":"02M151","Building_C":"M066","Location_C":"M151","Name":"Yorkville Community School","Geographic":2,"Latitude":40.777948000000002,"Longitude":-73.947287000000003}},{"type":"Feature","id":53,"geometry":{"type":"Point","coordinates":[997893.48123122752,219887.69610105455]},"properties":{"OBJECTID":53,"ATS":"02M158","Building_C":"M158","Location_C":"M158","Name":"P.S. 158 Bayard Taylor","Geographic":2,"Latitude":40.770215,"Longitude":-73.950744999999998}},{"type":"Feature","id":54,"geometry":{"type":"Point","coordinates":[995931.61474813521,220369.77847023308]},"properties":{"OBJECTID":54,"ATS":"02M167","Building_C":"M167","Location_C":"M167","Name":"J.H.S. 167 Robert F. Wagner","Geographic":2,"Latitude":40.771540999999999,"Longitude":-73.957826999999995}},{"type":"Feature","id":55,"geometry":{"type":"Point","coordinates":[997893.48123122752,219887.69610105455]},"properties":{"OBJECTID":55,"ATS":"02M177","Building_C":"M158","Location_C":"M177","Name":"Yorkville East Middle School","Geographic":2,"Latitude":40.770215,"Longitude":-73.950744999999998}},{"type":"Feature","id":56,"geometry":{"type":"Point","coordinates":[995959.56515155733,217550.94650948048]},"properties":{"OBJECTID":56,"ATS":"02M183","Building_C":"M183","Location_C":"M183","Name":"P.S. 183 Robert L. Stevenson","Geographic":2,"Latitude":40.763804,"Longitude":-73.957730999999995}},{"type":"Feature","id":57,"geometry":{"type":"Point","coordinates":[997980.45021738112,225280.97698114812]},"properties":{"OBJECTID":57,"ATS":"02M198","Building_C":"M198","Location_C":"M198","Name":"P.S. 198 Isador E. Ida Straus","Geographic":2,"Latitude":40.785018000000001,"Longitude":-73.950419999999994}},{"type":"Feature","id":58,"geometry":{"type":"Point","coordinates":[987390.48780155182,216645.8725322336]},"properties":{"OBJECTID":58,"ATS":"02M212","Building_C":"M017","Location_C":"M212","Name":"P.S. 212 Midtown West","Geographic":2,"Latitude":40.761327000000001,"Longitude":-73.988664999999997}},{"type":"Feature","id":59,"geometry":{"type":"Point","coordinates":[996320.42630647123,213832.74430023134]},"properties":{"OBJECTID":59,"ATS":"02M217","Building_C":"M271","Location_C":"M217","Name":"P.S./I.S. 217 Roosevelt Island","Geographic":2,"Latitude":40.753597999999997,"Longitude":-73.956434999999999}},{"type":"Feature","id":60,"geometry":{"type":"Point","coordinates":[995392.48492088914,218218.86610539258]},"properties":{"OBJECTID":60,"ATS":"02M225","Building_C":"M480","Location_C":"M225","Name":"Ella Baker School","Geographic":2,"Latitude":40.765638000000003,"Longitude":-73.959777000000003}},{"type":"Feature","id":61,"geometry":{"type":"Point","coordinates":[981234.46992988884,201417.8865840584]},"properties":{"OBJECTID":61,"ATS":"02M234","Building_C":"M234","Location_C":"M234","Name":"P.S. 234 Independence School","Geographic":2,"Latitude":40.719529999999999,"Longitude":-74.01088}},{"type":"Feature","id":62,"geometry":{"type":"Point","coordinates":[989367.40051439404,207173.93937639892]},"properties":{"OBJECTID":62,"ATS":"02M255","Building_C":"M040","Location_C":"M255","Name":"M.S. 255 Salk School of Science","Geographic":2,"Latitude":40.735328000000003,"Longitude":-73.981536000000006}},{"type":"Feature","id":63,"geometry":{"type":"Point","coordinates":[986265.9595388025,207609.95294006169]},"properties":{"OBJECTID":63,"ATS":"02M260","Building_C":"M868","Location_C":"M260","Name":"The Clinton School","Geographic":2,"Latitude":40.736525999999998,"Longitude":-73.992727000000002}},{"type":"Feature","id":64,"geometry":{"type":"Point","coordinates":[994261.44912521541,217578.96876314282]},"properties":{"OBJECTID":64,"ATS":"02M267","Building_C":"M267","Location_C":"M267","Name":"East Side Elementary School, PS 267","Geographic":2,"Latitude":40.763883,"Longitude":-73.963860999999994}},{"type":"Feature","id":65,"geometry":{"type":"Point","coordinates":[979410.65139906108,196628.69537505507]},"properties":{"OBJECTID":65,"ATS":"02M276","Building_C":"M276","Location_C":"M276","Name":"Battery Park City School","Geographic":2,"Latitude":40.706384,"Longitude":-74.017455999999996}},{"type":"Feature","id":66,"geometry":{"type":"Point","coordinates":[984014.47552472353,198470.63165180385]},"properties":{"OBJECTID":66,"ATS":"02M280","Building_C":"M520","Location_C":"M280","Name":"Manhattan Early College School for Advertising","Geographic":2,"Latitude":40.711441000000001,"Longitude":-74.000850999999997}},{"type":"Feature","id":67,"geometry":{"type":"Point","coordinates":[991845.06419421732,210438.99944731593]},"properties":{"OBJECTID":67,"ATS":"02M281","Building_C":"M281","Location_C":"M281","Name":"The River School","Geographic":2,"Latitude":40.744287999999997,"Longitude":-73.972592000000006}},{"type":"Feature","id":68,"geometry":{"type":"Point","coordinates":[984014.47552472353,198470.63165180385]},"properties":{"OBJECTID":68,"ATS":"02M282","Building_C":"M520","Location_C":"M282","Name":"Urban Assembly Maker Academy","Geographic":2,"Latitude":40.711441000000001,"Longitude":-74.000850999999997}},{"type":"Feature","id":69,"geometry":{"type":"Point","coordinates":[986272.56352822483,218156.64182038605]},"properties":{"OBJECTID":69,"ATS":"02M288","Building_C":"M535","Location_C":"M288","Name":"Food and Finance High School","Geographic":2,"Latitude":40.765473999999998,"Longitude":-73.992699999999999}},{"type":"Feature","id":70,"geometry":{"type":"Point","coordinates":[980378.60878072679,200499.894981727]},"properties":{"OBJECTID":70,"ATS":"02M289","Building_C":"M089","Location_C":"M289","Name":"I.S. 289","Geographic":2,"Latitude":40.717010000000002,"Longitude":-74.013966999999994}},{"type":"Feature","id":71,"geometry":{"type":"Point","coordinates":[997329.66477355361,221696.66525214911]},"properties":{"OBJECTID":71,"ATS":"02M290","Building_C":"M190","Location_C":"M290","Name":"P.S. 290 Manhattan New School","Geographic":2,"Latitude":40.775181000000003,"Longitude":-73.952776999999998}},{"type":"Feature","id":72,"geometry":{"type":"Point","coordinates":[987208.49505530298,200615.98792539537]},"properties":{"OBJECTID":72,"ATS":"02M294","Building_C":"M445","Location_C":"M294","Name":"Essex Street Academy","Geographic":2,"Latitude":40.717328999999999,"Longitude":-73.989328999999998}},{"type":"Feature","id":73,"geometry":{"type":"Point","coordinates":[986272.56352822483,218156.64182038605]},"properties":{"OBJECTID":73,"ATS":"02M296","Building_C":"M535","Location_C":"M296","Name":"High School of Hospitality Management","Geographic":2,"Latitude":40.765473999999998,"Longitude":-73.992699999999999}},{"type":"Feature","id":74,"geometry":{"type":"Point","coordinates":[982257.12536488473,205598.84246097505]},"properties":{"OBJECTID":74,"ATS":"02M297","Building_C":"M323","Location_C":"M297","Name":"M.S. 297","Geographic":2,"Latitude":40.731006000000001,"Longitude":-74.007192000000003}},{"type":"Feature","id":75,"geometry":{"type":"Point","coordinates":[986022.6253798008,200215.83747898042]},"properties":{"OBJECTID":75,"ATS":"02M298","Building_C":"M131","Location_C":"M298","Name":"Pace High School","Geographic":2,"Latitude":40.716231000000001,"Longitude":-73.993606999999997}},{"type":"Feature","id":76,"geometry":{"type":"Point","coordinates":[986272.56352822483,218156.64182038605]},"properties":{"OBJECTID":76,"ATS":"02M300","Building_C":"M535","Location_C":"M300","Name":"Urban Assembly School of Design and Construction,","Geographic":2,"Latitude":40.765473999999998,"Longitude":-73.992699999999999}},{"type":"Feature","id":77,"geometry":{"type":"Point","coordinates":[986272.56352822483,218156.64182038605]},"properties":{"OBJECTID":77,"ATS":"02M303","Building_C":"M535","Location_C":"M303","Name":"Facing History School, The","Geographic":2,"Latitude":40.765473999999998,"Longitude":-73.992699999999999}},{"type":"Feature","id":78,"geometry":{"type":"Point","coordinates":[987208.49505530298,200615.98792539537]},"properties":{"OBJECTID":78,"ATS":"02M305","Building_C":"M445","Location_C":"M305","Name":"Urban Assembly Academy of Government and Law, The","Geographic":2,"Latitude":40.717328999999999,"Longitude":-73.989328999999998}},{"type":"Feature","id":79,"geometry":{"type":"Point","coordinates":[987208.49505530298,200615.98792539537]},"properties":{"OBJECTID":79,"ATS":"02M308","Building_C":"M445","Location_C":"M308","Name":"Lower Manhattan Arts Academy","Geographic":2,"Latitude":40.717328999999999,"Longitude":-73.989328999999998}},{"type":"Feature","id":80,"geometry":{"type":"Point","coordinates":[983634.67641554773,209790.76616372168]},"properties":{"OBJECTID":80,"ATS":"02M312","Building_C":"M070","Location_C":"M312","Name":"New York City Lab Middle School for Collaborative","Geographic":2,"Latitude":40.742511999999998,"Longitude":-74.002222000000003}},{"type":"Feature","id":81,"geometry":{"type":"Point","coordinates":[983546.56668363512,210116.8452359736]},"properties":{"OBJECTID":81,"ATS":"02M313","Building_C":"M440","Location_C":"M313","Name":"James Baldwin School, The: A School for Expedition","Geographic":2,"Latitude":40.743406999999998,"Longitude":-74.002539999999996}},{"type":"Feature","id":82,"geometry":{"type":"Point","coordinates":[980562.04968680441,196374.91996397078]},"properties":{"OBJECTID":82,"ATS":"02M316","Building_C":"M282","Location_C":"M316","Name":"Urban Assembly School of Business for Young Women,","Geographic":2,"Latitude":40.705688000000002,"Longitude":-74.013302999999993}},{"type":"Feature","id":83,"geometry":{"type":"Point","coordinates":[985488.00997921824,208564.08489005268]},"properties":{"OBJECTID":83,"ATS":"02M340","Building_C":"M340","Location_C":"M340","Name":"Sixth Avenue Elementary School","Geographic":2,"Latitude":40.739145000000001,"Longitude":-73.995534000000006}},{"type":"Feature","id":84,"geometry":{"type":"Point","coordinates":[983583.07415655255,197498.97119356692]},"properties":{"OBJECTID":84,"ATS":"02M343","Building_C":"M343","Location_C":"M343","Name":"The Peck Slip School","Geographic":2,"Latitude":40.708773999999998,"Longitude":-74.002407000000005}},{"type":"Feature","id":85,"geometry":{"type":"Point","coordinates":[989424.5306494683,208283.70520147681]},"properties":{"OBJECTID":85,"ATS":"02M347","Building_C":"M047","Location_C":"M347","Name":"The 47 American Sign Language & English Lower Scho","Geographic":2,"Latitude":40.738374,"Longitude":-73.981329000000002}},{"type":"Feature","id":86,"geometry":{"type":"Point","coordinates":[987835.40259413421,207185.68771247566]},"properties":{"OBJECTID":86,"ATS":"02M374","Building_C":"M460","Location_C":"M374","Name":"Gramercy Arts High School","Geographic":2,"Latitude":40.735360999999997,"Longitude":-73.987064000000004}},{"type":"Feature","id":87,"geometry":{"type":"Point","coordinates":[982848.43323738873,203275.82643772662]},"properties":{"OBJECTID":87,"ATS":"02M376","Building_C":"M615","Location_C":"M376","Name":"NYC iSchool","Geographic":2,"Latitude":40.724629999999998,"Longitude":-74.005058000000005}},{"type":"Feature","id":88,"geometry":{"type":"Point","coordinates":[979833.91958138347,196085.03471697867]},"properties":{"OBJECTID":88,"ATS":"02M391","Building_C":"M391","Location_C":"M391","Name":"District 2 Pre-K Center","Geographic":2,"Latitude":40.704892000000001,"Longitude":-74.015929}},{"type":"Feature","id":89,"geometry":{"type":"Point","coordinates":[983546.56668363512,210116.8452359736]},"properties":{"OBJECTID":89,"ATS":"02M392","Building_C":"M440","Location_C":"M392","Name":"Manhattan Business Academy","Geographic":2,"Latitude":40.743406999999998,"Longitude":-74.002539999999996}},{"type":"Feature","id":90,"geometry":{"type":"Point","coordinates":[986932.47067296505,217493.98435306549]},"properties":{"OBJECTID":90,"ATS":"02M393","Building_C":"M625","Location_C":"M393","Name":"Business Of Sports School","Geographic":2,"Latitude":40.763655,"Longitude":-73.990318000000002}},{"type":"Feature","id":91,"geometry":{"type":"Point","coordinates":[986022.6253798008,200215.83747898042]},"properties":{"OBJECTID":91,"ATS":"02M394","Building_C":"M131","Location_C":"M394","Name":"Emma Lazarus High School","Geographic":2,"Latitude":40.716231000000001,"Longitude":-73.993606999999997}},{"type":"Feature","id":92,"geometry":{"type":"Point","coordinates":[980794.56103280187,197570.98089206219]},"properties":{"OBJECTID":92,"ATS":"02M395","Building_C":"M894","Location_C":"M395","Name":"A School Without Walls","Geographic":2,"Latitude":40.708970999999998,"Longitude":-74.012465000000006}},{"type":"Feature","id":93,"geometry":{"type":"Point","coordinates":[982733.10111896694,198426.95818272233]},"properties":{"OBJECTID":93,"ATS":"02M397","Building_C":"M971","Location_C":"M397","Name":"Spruce Street School","Geographic":2,"Latitude":40.711320999999998,"Longitude":-74.005472999999995}},{"type":"Feature","id":94,"geometry":{"type":"Point","coordinates":[987835.40259413421,207185.68771247566]},"properties":{"OBJECTID":94,"ATS":"02M399","Building_C":"M460","Location_C":"M399","Name":"The High School For Language And Diplomacy","Geographic":2,"Latitude":40.735360999999997,"Longitude":-73.987064000000004}},{"type":"Feature","id":95,"geometry":{"type":"Point","coordinates":[987405.41559322178,219021.68930289149]},"properties":{"OBJECTID":95,"ATS":"02M400","Building_C":"M834","Location_C":"M400","Name":"High School for Environmental Studies","Geographic":2,"Latitude":40.767848000000001,"Longitude":-73.988609999999994}},{"type":"Feature","id":96,"geometry":{"type":"Point","coordinates":[989075.49394597113,206203.66507022083]},"properties":{"OBJECTID":96,"ATS":"02M407","Building_C":"M475","Location_C":"M407","Name":"Institute for Collaborative Education","Geographic":2,"Latitude":40.732664999999997,"Longitude":-73.982590000000002}},{"type":"Feature","id":97,"geometry":{"type":"Point","coordinates":[987390.48780155182,216645.8725322336]},"properties":{"OBJECTID":97,"ATS":"02M408","Building_C":"M017","Location_C":"M408","Name":"Professional Performing Arts High School","Geographic":2,"Latitude":40.761327000000001,"Longitude":-73.988664999999997}},{"type":"Feature","id":98,"geometry":{"type":"Point","coordinates":[988206.65185163915,209563.73741830885]},"properties":{"OBJECTID":98,"ATS":"02M411","Building_C":"M874","Location_C":"M411","Name":"Baruch College Campus High School","Geographic":2,"Latitude":40.741888000000003,"Longitude":-73.985722999999993}},{"type":"Feature","id":99,"geometry":{"type":"Point","coordinates":[983634.67641554773,209790.76616372168]},"properties":{"OBJECTID":99,"ATS":"02M412","Building_C":"M070","Location_C":"M412","Name":"N.Y.C. Lab School for Collaborative Studies","Geographic":2,"Latitude":40.742511999999998,"Longitude":-74.002222000000003}},{"type":"Feature","id":100,"geometry":{"type":"Point","coordinates":[988317.66311255097,208555.65019564331]},"properties":{"OBJECTID":100,"ATS":"02M413","Building_C":"M660","Location_C":"M413","Name":"School of the Future High School","Geographic":2,"Latitude":40.739120999999997,"Longitude":-73.985322999999994}},{"type":"Feature","id":101,"geometry":{"type":"Point","coordinates":[983634.67641554773,209790.76616372168]},"properties":{"OBJECTID":101,"ATS":"02M414","Building_C":"M070","Location_C":"M414","Name":"N.Y.C. Museum School","Geographic":2,"Latitude":40.742511999999998,"Longitude":-74.002222000000003}},{"type":"Feature","id":102,"geometry":{"type":"Point","coordinates":[997192.40881447494,219913.90864706039]},"properties":{"OBJECTID":102,"ATS":"02M416","Building_C":"M855","Location_C":"M416","Name":"Eleanor Roosevelt High School","Geographic":2,"Latitude":40.770288000000001,"Longitude":-73.953276000000002}},{"type":"Feature","id":103,"geometry":{"type":"Point","coordinates":[981144.52063472569,196013.7874841392]},"properties":{"OBJECTID":103,"ATS":"02M418","Building_C":"M824","Location_C":"M418","Name":"Millennium High School","Geographic":2,"Latitude":40.704697000000003,"Longitude":-74.011201999999997}},{"type":"Feature","id":104,"geometry":{"type":"Point","coordinates":[983546.56668363512,210116.8452359736]},"properties":{"OBJECTID":104,"ATS":"02M419","Building_C":"M440","Location_C":"M419","Name":"Landmark High School","Geographic":2,"Latitude":40.743406999999998,"Longitude":-74.002539999999996}},{"type":"Feature","id":105,"geometry":{"type":"Point","coordinates":[989075.49394597113,206203.66507022083]},"properties":{"OBJECTID":105,"ATS":"02M420","Building_C":"M475","Location_C":"M420","Name":"High School for Health Professions and Human Servi","Geographic":2,"Latitude":40.732664999999997,"Longitude":-73.982590000000002}},{"type":"Feature","id":106,"geometry":{"type":"Point","coordinates":[983546.56668363512,210116.8452359736]},"properties":{"OBJECTID":106,"ATS":"02M422","Building_C":"M440","Location_C":"M422","Name":"Quest to Learn","Geographic":2,"Latitude":40.743406999999998,"Longitude":-74.002539999999996}},{"type":"Feature","id":107,"geometry":{"type":"Point","coordinates":[980794.56103280187,197570.98089206219]},"properties":{"OBJECTID":107,"ATS":"02M425","Building_C":"M894","Location_C":"M425","Name":"Leadership and Public Service High School","Geographic":2,"Latitude":40.708970999999998,"Longitude":-74.012465000000006}},{"type":"Feature","id":108,"geometry":{"type":"Point","coordinates":[989495.66469354928,211247.92368248105]},"properties":{"OBJECTID":108,"ATS":"02M427","Building_C":"M620","Location_C":"M427","Name":"Manhattan Academy For Arts & Language","Geographic":2,"Latitude":40.746510000000001,"Longitude":-73.981070000000003}},{"type":"Feature","id":109,"geometry":{"type":"Point","coordinates":[989495.66469354928,211247.92368248105]},"properties":{"OBJECTID":109,"ATS":"02M432","Building_C":"M620","Location_C":"M432","Name":"Murray Hill Academy","Geographic":2,"Latitude":40.746510000000001,"Longitude":-73.981070000000003}},{"type":"Feature","id":110,"geometry":{"type":"Point","coordinates":[983546.56668363512,210116.8452359736]},"properties":{"OBJECTID":110,"ATS":"02M437","Building_C":"M440","Location_C":"M437","Name":"Hudson High School of Learning Technologies","Geographic":2,"Latitude":40.743406999999998,"Longitude":-74.002539999999996}},{"type":"Feature","id":111,"geometry":{"type":"Point","coordinates":[987835.40259413421,207185.68771247566]},"properties":{"OBJECTID":111,"ATS":"02M438","Building_C":"M460","Location_C":"M438","Name":"International High School at Union Square","Geographic":2,"Latitude":40.735360999999997,"Longitude":-73.987064000000004}},{"type":"Feature","id":112,"geometry":{"type":"Point","coordinates":[986476.67302814126,209590.84202289581]},"properties":{"OBJECTID":112,"ATS":"02M439","Building_C":"M873","Location_C":"M439","Name":"Manhattan Village Academy","Geographic":2,"Latitude":40.741962999999998,"Longitude":-73.991966000000005}},{"type":"Feature","id":113,"geometry":{"type":"Point","coordinates":[987165.43247738481,208336.88554130495]},"properties":{"OBJECTID":113,"ATS":"02M442","Building_C":"M905","Location_C":"M442","Name":"Ballet Tech, NYC Public School for Dance","Geographic":2,"Latitude":40.738520999999999,"Longitude":-73.989480999999998}},{"type":"Feature","id":114,"geometry":{"type":"Point","coordinates":[995392.48492088914,218218.86610539258]},"properties":{"OBJECTID":114,"ATS":"02M449","Building_C":"M480","Location_C":"M449","Name":"Vanguard High School","Geographic":2,"Latitude":40.765638000000003,"Longitude":-73.959777000000003}},{"type":"Feature","id":115,"geometry":{"type":"Point","coordinates":[995392.48492088914,218218.86610539258]},"properties":{"OBJECTID":115,"ATS":"02M459","Building_C":"M480","Location_C":"M459","Name":"Manhattan International High School","Geographic":2,"Latitude":40.765638000000003,"Longitude":-73.959777000000003}},{"type":"Feature","id":116,"geometry":{"type":"Point","coordinates":[980391.41912254691,200869.68853347003]},"properties":{"OBJECTID":116,"ATS":"02M475","Building_C":"M477","Location_C":"M475","Name":"Stuyvesant High School","Geographic":2,"Latitude":40.718024999999997,"Longitude":-74.013920999999996}},{"type":"Feature","id":117,"geometry":{"type":"Point","coordinates":[980832.55898830295,197679.9104642272]},"properties":{"OBJECTID":117,"ATS":"02M489","Building_C":"M833","Location_C":"M489","Name":"High School of Economics and Finance","Geographic":2,"Latitude":40.709269999999997,"Longitude":-74.012327999999997}},{"type":"Feature","id":118,"geometry":{"type":"Point","coordinates":[989495.66469354928,211247.92368248105]},"properties":{"OBJECTID":118,"ATS":"02M500","Building_C":"M620","Location_C":"M500","Name":"Unity Center for Urban Technologies","Geographic":2,"Latitude":40.746510000000001,"Longitude":-73.981070000000003}},{"type":"Feature","id":119,"geometry":{"type":"Point","coordinates":[986932.47067296505,217493.98435306549]},"properties":{"OBJECTID":119,"ATS":"02M507","Building_C":"M625","Location_C":"M507","Name":"Urban Assembly Gateway School for Technology","Geographic":2,"Latitude":40.763655,"Longitude":-73.990318000000002}},{"type":"Feature","id":120,"geometry":{"type":"Point","coordinates":[995392.48492088914,218218.86610539258]},"properties":{"OBJECTID":120,"ATS":"02M519","Building_C":"M480","Location_C":"M519","Name":"Talent Unlimited High School","Geographic":2,"Latitude":40.765638000000003,"Longitude":-73.959777000000003}},{"type":"Feature","id":121,"geometry":{"type":"Point","coordinates":[984014.47552472353,198470.63165180385]},"properties":{"OBJECTID":121,"ATS":"02M520","Building_C":"M520","Location_C":"M520","Name":"Murry Bergtraum High School for Business Careers","Geographic":2,"Latitude":40.711441000000001,"Longitude":-74.000850999999997}},{"type":"Feature","id":122,"geometry":{"type":"Point","coordinates":[998691.43796864152,223690.70752389729]},"properties":{"OBJECTID":122,"ATS":"02M527","Building_C":"M816","Location_C":"M527","Name":"P.S. 527 - East Side School for Social Action","Geographic":2,"Latitude":40.780652000000003,"Longitude":-73.947856000000002}},{"type":"Feature","id":123,"geometry":{"type":"Point","coordinates":[988832.66142638028,215297.70692147315]},"properties":{"OBJECTID":123,"ATS":"02M529","Building_C":"M486","Location_C":"M529","Name":"Jacqueline Kennedy Onassis High School","Geographic":2,"Latitude":40.757626000000002,"Longitude":-73.983459999999994}},{"type":"Feature","id":124,"geometry":{"type":"Point","coordinates":[988577.60616222024,214737.68081055582]},"properties":{"OBJECTID":124,"ATS":"02M531","Building_C":"M896","Location_C":"M531","Name":"Repertory Company High School for Theatre Arts","Geographic":2,"Latitude":40.756089000000003,"Longitude":-73.984380999999999}},{"type":"Feature","id":125,"geometry":{"type":"Point","coordinates":[987835.40259413421,207185.68771247566]},"properties":{"OBJECTID":125,"ATS":"02M533","Building_C":"M460","Location_C":"M533","Name":"Union Square Academy for Health Sciences","Geographic":2,"Latitude":40.735360999999997,"Longitude":-73.987064000000004}},{"type":"Feature","id":126,"geometry":{"type":"Point","coordinates":[985433.46645313501,207569.82145863771]},"properties":{"OBJECTID":126,"ATS":"02M534","Building_C":"M883","Location_C":"M534","Name":"Harvest Collegiate High School","Geographic":2,"Latitude":40.736415999999998,"Longitude":-73.995731000000006}},{"type":"Feature","id":127,"geometry":{"type":"Point","coordinates":[986272.56352822483,218156.64182038605]},"properties":{"OBJECTID":127,"ATS":"02M542","Building_C":"M535","Location_C":"M542","Name":"Manhattan Bridges High School","Geographic":2,"Latitude":40.765473999999998,"Longitude":-73.992699999999999}},{"type":"Feature","id":128,"geometry":{"type":"Point","coordinates":[987208.49505530298,200615.98792539537]},"properties":{"OBJECTID":128,"ATS":"02M543","Building_C":"M445","Location_C":"M543","Name":"New Design High School","Geographic":2,"Latitude":40.717328999999999,"Longitude":-73.989328999999998}},{"type":"Feature","id":129,"geometry":{"type":"Point","coordinates":[987405.41559322178,219021.68930289149]},"properties":{"OBJECTID":129,"ATS":"02M544","Building_C":"M834","Location_C":"M544","Name":"Independence High School","Geographic":2,"Latitude":40.767848000000001,"Longitude":-73.988609999999994}},{"type":"Feature","id":130,"geometry":{"type":"Point","coordinates":[987208.49505530298,200615.98792539537]},"properties":{"OBJECTID":130,"ATS":"02M545","Building_C":"M445","Location_C":"M545","Name":"High School for Dual Language and Asian Studies","Geographic":2,"Latitude":40.717328999999999,"Longitude":-73.989328999999998}},{"type":"Feature","id":131,"geometry":{"type":"Point","coordinates":[987835.40259413421,207185.68771247566]},"properties":{"OBJECTID":131,"ATS":"02M546","Building_C":"M460","Location_C":"M546","Name":"Academy for Software Engineering","Geographic":2,"Latitude":40.735360999999997,"Longitude":-73.987064000000004}},{"type":"Feature","id":132,"geometry":{"type":"Point","coordinates":[984184.44992230833,209538.64068372548]},"properties":{"OBJECTID":132,"ATS":"02M550","Building_C":"M451","Location_C":"M550","Name":"Liberty High School Academy for Newcomers","Geographic":2,"Latitude":40.741819999999997,"Longitude":-74.000237999999996}},{"type":"Feature","id":133,"geometry":{"type":"Point","coordinates":[978997.59776322544,190474.89042547345]},"properties":{"OBJECTID":133,"ATS":"02M551","Building_C":"M877","Location_C":"M551","Name":"Urban Assembly New York Harbor School","Geographic":2,"Latitude":40.689492999999999,"Longitude":-74.018940999999998}},{"type":"Feature","id":134,"geometry":{"type":"Point","coordinates":[982544.481745556,204886.91737563908]},"properties":{"OBJECTID":134,"ATS":"02M560","Building_C":"M641","Location_C":"M560","Name":"High School M560 - City As School","Geographic":2,"Latitude":40.729052000000003,"Longitude":-74.006155000000007}},{"type":"Feature","id":135,"geometry":{"type":"Point","coordinates":[995392.48492088914,218218.86610539258]},"properties":{"OBJECTID":135,"ATS":"02M565","Building_C":"M480","Location_C":"M565","Name":"Urban Academy Laboratory High School","Geographic":2,"Latitude":40.765638000000003,"Longitude":-73.959777000000003}},{"type":"Feature","id":136,"geometry":{"type":"Point","coordinates":[986865.51575438678,211580.86166489124]},"properties":{"OBJECTID":136,"ATS":"02M570","Building_C":"M920","Location_C":"M570","Name":"Satellite Academy High School","Geographic":2,"Latitude":40.747425,"Longitude":-73.990561999999997}},{"type":"Feature","id":137,"geometry":{"type":"Point","coordinates":[988592.42863914371,206215.96130548418]},"properties":{"OBJECTID":137,"ATS":"02M575","Building_C":"M661","Location_C":"M575","Name":"Manhattan Comprehensive Night and Day High School","Geographic":2,"Latitude":40.732698999999997,"Longitude":-73.984333000000007}},{"type":"Feature","id":138,"geometry":{"type":"Point","coordinates":[980562.04968680441,196374.91996397078]},"properties":{"OBJECTID":138,"ATS":"02M580","Building_C":"M282","Location_C":"M580","Name":"Richard R. Green High School of Teaching","Geographic":2,"Latitude":40.705688000000002,"Longitude":-74.013302999999993}},{"type":"Feature","id":139,"geometry":{"type":"Point","coordinates":[986372.59548038244,205108.82769297063]},"properties":{"OBJECTID":139,"ATS":"02M586","Building_C":"M807","Location_C":"M586","Name":"Harvey Milk High School","Geographic":2,"Latitude":40.729661,"Longitude":-73.992343000000005}},{"type":"Feature","id":140,"geometry":{"type":"Point","coordinates":[985260.67447589338,210943.8895136416]},"properties":{"OBJECTID":140,"ATS":"02M600","Building_C":"M600","Location_C":"M600","Name":"The High School of Fashion Industries","Geographic":2,"Latitude":40.745677000000001,"Longitude":-73.996353999999997}},{"type":"Feature","id":141,"geometry":{"type":"Point","coordinates":[983546.56668363512,210116.8452359736]},"properties":{"OBJECTID":141,"ATS":"02M605","Building_C":"M440","Location_C":"M605","Name":"Humanities Preparatory Academy","Geographic":2,"Latitude":40.743406999999998,"Longitude":-74.002539999999996}},{"type":"Feature","id":142,"geometry":{"type":"Point","coordinates":[982848.43323738873,203275.82643772662]},"properties":{"OBJECTID":142,"ATS":"02M615","Building_C":"M615","Location_C":"M615","Name":"Chelsea Career and Technical Education High School","Geographic":2,"Latitude":40.724629999999998,"Longitude":-74.005058000000005}},{"type":"Feature","id":143,"geometry":{"type":"Point","coordinates":[993336.01987372339,215889.92227247357]},"properties":{"OBJECTID":143,"ATS":"02M630","Building_C":"M488","Location_C":"M630","Name":"Art and Design High School","Geographic":2,"Latitude":40.759247999999999,"Longitude":-73.967203999999995}},{"type":"Feature","id":144,"geometry":{"type":"Point","coordinates":[999223.4116422236,224650.68559080362]},"properties":{"OBJECTID":144,"ATS":"02M655","Building_C":"M645","Location_C":"M655","Name":"The High School for Climate Justice","Geographic":2,"Latitude":40.783285999999997,"Longitude":-73.945932999999997}},{"type":"Feature","id":145,"geometry":{"type":"Point","coordinates":[980562.04968680441,196374.91996397078]},"properties":{"OBJECTID":145,"ATS":"02M896","Building_C":"M282","Location_C":"M896","Name":"Lower Manhattan Community Middle School","Geographic":2,"Latitude":40.705688000000002,"Longitude":-74.013302999999993}},{"type":"Feature","id":146,"geometry":{"type":"Point","coordinates":[986236.53702546656,211570.965031147]},"properties":{"OBJECTID":146,"ATS":"02M972","Building_C":"M882","Location_C":"M972","Name":"Office of Academic Policy","Geographic":2,"Latitude":40.747397999999997,"Longitude":-73.992832000000007}},{"type":"Feature","id":147,"geometry":{"type":"Point","coordinates":[991379.59169997275,225356.83509714901]},"properties":{"OBJECTID":147,"ATS":"03M009","Building_C":"M009","Location_C":"M009","Name":"P.S. 009 Sarah Anderson","Geographic":3,"Latitude":40.785234000000003,"Longitude":-73.974255999999997}},{"type":"Feature","id":148,"geometry":{"type":"Point","coordinates":[994419.54100063443,230992.71654188633]},"properties":{"OBJECTID":148,"ATS":"03M054","Building_C":"M054","Location_C":"M054","Name":"J.H.S. 054 Booker T. Washington","Geographic":3,"Latitude":40.800699999999999,"Longitude":-73.963269999999994}},{"type":"Feature","id":149,"geometry":{"type":"Point","coordinates":[991450.52430088818,228954.65795397758]},"properties":{"OBJECTID":149,"ATS":"03M075","Building_C":"M075","Location_C":"M075","Name":"P.S. 075 Emily Dickinson","Geographic":3,"Latitude":40.795108999999997,"Longitude":-73.973996}},{"type":"Feature","id":150,"geometry":{"type":"Point","coordinates":[997690.59384171665,233119.83991231024]},"properties":{"OBJECTID":150,"ATS":"03M076","Building_C":"M076","Location_C":"M076","Name":"P.S. 076 A. Philip Randolph","Geographic":3,"Latitude":40.806533999999999,"Longitude":-73.951451000000006}},{"type":"Feature","id":151,"geometry":{"type":"Point","coordinates":[992995.45264147222,226903.96258030832]},"properties":{"OBJECTID":151,"ATS":"03M084","Building_C":"M084","Location_C":"M084","Name":"P.S. 084 Lillian Weber","Geographic":3,"Latitude":40.789479,"Longitude":-73.968418999999997}},{"type":"Feature","id":152,"geometry":{"type":"Point","coordinates":[990337.56327222288,224072.63851855695]},"properties":{"OBJECTID":152,"ATS":"03M087","Building_C":"M087","Location_C":"M087","Name":"P.S. 087 William Sherman","Geographic":3,"Latitude":40.781709999999997,"Longitude":-73.978020000000001}},{"type":"Feature","id":153,"geometry":{"type":"Point","coordinates":[993771.63645654917,230408.78923206031]},"properties":{"OBJECTID":153,"ATS":"03M145","Building_C":"M145","Location_C":"M145","Name":"P.S. 145, The Bloomingdale School","Geographic":3,"Latitude":40.799098000000001,"Longitude":-73.965610999999996}},{"type":"Feature","id":154,"geometry":{"type":"Point","coordinates":[998622.43745046854,231704.93230906129]},"properties":{"OBJECTID":154,"ATS":"03M149","Building_C":"M207","Location_C":"M149","Name":"P.S. 149 Sojourner Truth","Geographic":3,"Latitude":40.802649000000002,"Longitude":-73.948087999999998}},{"type":"Feature","id":155,"geometry":{"type":"Point","coordinates":[992980.5848890543,228974.83442281187]},"properties":{"OBJECTID":155,"ATS":"03M163","Building_C":"M163","Location_C":"M163","Name":"P.S. 163 Alfred E. Smith","Geographic":3,"Latitude":40.795163000000002,"Longitude":-73.968469999999996}},{"type":"Feature","id":156,"geometry":{"type":"Point","coordinates":[993677.55134288967,231703.96315088868]},"properties":{"OBJECTID":156,"ATS":"03M165","Building_C":"M165","Location_C":"M165","Name":"P.S. 165 Robert E. Simon","Geographic":3,"Latitude":40.802652999999999,"Longitude":-73.965948999999995}},{"type":"Feature","id":157,"geometry":{"type":"Point","coordinates":[991849.66818763316,226701.73529447615]},"properties":{"OBJECTID":157,"ATS":"03M166","Building_C":"M166","Location_C":"M166","Name":"P.S. 166 The Richard Rodgers School of The Arts an","Geographic":3,"Latitude":40.788924999999999,"Longitude":-73.972556999999995}},{"type":"Feature","id":158,"geometry":{"type":"Point","coordinates":[996469.54969589412,233496.64558914304]},"properties":{"OBJECTID":158,"ATS":"03M180","Building_C":"M180","Location_C":"M180","Name":"P.S. 180 Hugo Newman","Geographic":3,"Latitude":40.807569999999998,"Longitude":-73.955860999999999}},{"type":"Feature","id":159,"geometry":{"type":"Point","coordinates":[998053.54095047712,230178.76672622561]},"properties":{"OBJECTID":159,"ATS":"03M185","Building_C":"M185","Location_C":"M185","Name":"The Locke School of Arts and Engineering","Geographic":3,"Latitude":40.798461000000003,"Longitude":-73.950146000000004}},{"type":"Feature","id":160,"geometry":{"type":"Point","coordinates":[986770.36994729936,220607.19334973395]},"properties":{"OBJECTID":160,"ATS":"03M191","Building_C":"M342","Location_C":"M191","Name":"The Riverside School for Makers and Artists","Geographic":3,"Latitude":40.772199999999998,"Longitude":-73.990902000000006}},{"type":"Feature","id":161,"geometry":{"type":"Point","coordinates":[988564.57666072249,222575.93974031508]},"properties":{"OBJECTID":161,"ATS":"03M199","Building_C":"M199","Location_C":"M199","Name":"P.S. 199 Jessie Isador Straus","Geographic":3,"Latitude":40.777602999999999,"Longitude":-73.984423000000007}},{"type":"Feature","id":162,"geometry":{"type":"Point","coordinates":[996547.61712504923,231311.76708489656]},"properties":{"OBJECTID":162,"ATS":"03M241","Building_C":"M113","Location_C":"M241","Name":"STEM Institute of Manhattan","Geographic":3,"Latitude":40.801572999999998,"Longitude":-73.955583000000004}},{"type":"Feature","id":163,"geometry":{"type":"Point","coordinates":[998539.48092347383,232945.80876430869]},"properties":{"OBJECTID":163,"ATS":"03M242","Building_C":"M144","Location_C":"M242","Name":"P.S. 242 - The Young Diplomats Magnet Academy","Geographic":3,"Latitude":40.806055000000001,"Longitude":-73.948385000000002}},{"type":"Feature","id":164,"geometry":{"type":"Point","coordinates":[991379.59169997275,225356.83509714901]},"properties":{"OBJECTID":164,"ATS":"03M243","Building_C":"M009","Location_C":"M243","Name":"M.S. 243 Center School","Geographic":3,"Latitude":40.785234000000003,"Longitude":-73.974255999999997}},{"type":"Feature","id":165,"geometry":{"type":"Point","coordinates":[990453.43410347402,223644.93989889324]},"properties":{"OBJECTID":165,"ATS":"03M245","Building_C":"M044","Location_C":"M245","Name":"M.S. M245 The Computer School","Geographic":3,"Latitude":40.780535999999998,"Longitude":-73.977602000000005}},{"type":"Feature","id":166,"geometry":{"type":"Point","coordinates":[990453.43410347402,223644.93989889324]},"properties":{"OBJECTID":166,"ATS":"03M247","Building_C":"M044","Location_C":"M247","Name":"M.S. M247 Dual Language Middle School","Geographic":3,"Latitude":40.780535999999998,"Longitude":-73.977602000000005}},{"type":"Feature","id":167,"geometry":{"type":"Point","coordinates":[991450.52430088818,228954.65795397758]},"properties":{"OBJECTID":167,"ATS":"03M250","Building_C":"M075","Location_C":"M250","Name":"M.S. 250 West Side Collaborative Middle School","Geographic":3,"Latitude":40.795108999999997,"Longitude":-73.973996}},{"type":"Feature","id":168,"geometry":{"type":"Point","coordinates":[992277.47441864014,227601.77876996994]},"properties":{"OBJECTID":168,"ATS":"03M256","Building_C":"M118","Location_C":"M256","Name":"Lafayette Academy","Geographic":3,"Latitude":40.791395000000001,"Longitude":-73.971011000000004}},{"type":"Feature","id":169,"geometry":{"type":"Point","coordinates":[992277.47441864014,227601.77876996994]},"properties":{"OBJECTID":169,"ATS":"03M258","Building_C":"M118","Location_C":"M258","Name":"Community Action School - MS 258","Geographic":3,"Latitude":40.791395000000001,"Longitude":-73.971011000000004}},{"type":"Feature","id":170,"geometry":{"type":"Point","coordinates":[987480.52830389142,220755.92566381395]},"properties":{"OBJECTID":170,"ATS":"03M291","Building_C":"M837","Location_C":"M291","Name":"West End Secondary School","Geographic":3,"Latitude":40.772607999999998,"Longitude":-73.988337999999999}},{"type":"Feature","id":171,"geometry":{"type":"Point","coordinates":[988236.54352413118,221587.81113913655]},"properties":{"OBJECTID":171,"ATS":"03M307","Building_C":"M490","Location_C":"M307","Name":"Urban Assembly School for Media Studies, The","Geographic":3,"Latitude":40.774890999999997,"Longitude":-73.985607999999999}},{"type":"Feature","id":172,"geometry":{"type":"Point","coordinates":[992277.47441864014,227601.77876996994]},"properties":{"OBJECTID":172,"ATS":"03M333","Building_C":"M118","Location_C":"M333","Name":"P.S. 333 Manhattan School for Children","Geographic":3,"Latitude":40.791395000000001,"Longitude":-73.971011000000004}},{"type":"Feature","id":173,"geometry":{"type":"Point","coordinates":[990453.43410347402,223644.93989889324]},"properties":{"OBJECTID":173,"ATS":"03M334","Building_C":"M044","Location_C":"M334","Name":"The Anderson School","Geographic":3,"Latitude":40.780535999999998,"Longitude":-73.977602000000005}},{"type":"Feature","id":174,"geometry":{"type":"Point","coordinates":[991316.63382063806,225684.71731539071]},"properties":{"OBJECTID":174,"ATS":"03M402","Building_C":"M470","Location_C":"M402","Name":"The Urban Assembly School for Green Careers","Geographic":3,"Latitude":40.786133999999997,"Longitude":-73.974483000000006}},{"type":"Feature","id":175,"geometry":{"type":"Point","coordinates":[991316.63382063806,225684.71731539071]},"properties":{"OBJECTID":175,"ATS":"03M403","Building_C":"M470","Location_C":"M403","Name":"The Global Learning Collaborative","Geographic":3,"Latitude":40.786133999999997,"Longitude":-73.974483000000006}},{"type":"Feature","id":176,"geometry":{"type":"Point","coordinates":[991316.63382063806,225684.71731539071]},"properties":{"OBJECTID":176,"ATS":"03M404","Building_C":"M470","Location_C":"M404","Name":"Innovation Diploma Plus","Geographic":3,"Latitude":40.786133999999997,"Longitude":-73.974483000000006}},{"type":"Feature","id":177,"geometry":{"type":"Point","coordinates":[996943.60353779793,231689.7863419801]},"properties":{"OBJECTID":177,"ATS":"03M415","Building_C":"M088","Location_C":"M415","Name":"Wadleigh Secondary School for the Performing & Vis","Geographic":3,"Latitude":40.802610000000001,"Longitude":-73.954151999999993}},{"type":"Feature","id":178,"geometry":{"type":"Point","coordinates":[991316.63382063806,225684.71731539071]},"properties":{"OBJECTID":178,"ATS":"03M417","Building_C":"M470","Location_C":"M417","Name":"Frank McCourt High School","Geographic":3,"Latitude":40.786133999999997,"Longitude":-73.974483000000006}},{"type":"Feature","id":179,"geometry":{"type":"Point","coordinates":[993771.48521013558,231498.87924347818]},"properties":{"OBJECTID":179,"ATS":"03M421","Building_C":"M534","Location_C":"M421","Name":"West Prep Academy","Geographic":3,"Latitude":40.80209,"Longitude":-73.965609999999998}},{"type":"Feature","id":180,"geometry":{"type":"Point","coordinates":[987708.53375338018,220389.80172415078]},"properties":{"OBJECTID":180,"ATS":"03M452","Building_C":"M191","Location_C":"M452","Name":"P.S. 452","Geographic":3,"Latitude":40.771602999999999,"Longitude":-73.987515000000002}},{"type":"Feature","id":181,"geometry":{"type":"Point","coordinates":[985285.93098706007,216474.81939664483]},"properties":{"OBJECTID":181,"ATS":"03M479","Building_C":"M912","Location_C":"M479","Name":"Beacon High School","Geographic":2,"Latitude":40.760857999999999,"Longitude":-73.996262000000002}},{"type":"Feature","id":182,"geometry":{"type":"Point","coordinates":[988134.65921346843,221336.76866222918]},"properties":{"OBJECTID":182,"ATS":"03M485","Building_C":"M485","Location_C":"M485","Name":"Fiorello H. LaGuardia High School of Music & Art a","Geographic":3,"Latitude":40.774202000000002,"Longitude":-73.985975999999994}},{"type":"Feature","id":183,"geometry":{"type":"Point","coordinates":[988236.54352413118,221587.81113913655]},"properties":{"OBJECTID":183,"ATS":"03M492","Building_C":"M490","Location_C":"M492","Name":"High School for Law, Advocacy and Community Justic","Geographic":3,"Latitude":40.774890999999997,"Longitude":-73.985607999999999}},{"type":"Feature","id":184,"geometry":{"type":"Point","coordinates":[988236.54352413118,221587.81113913655]},"properties":{"OBJECTID":184,"ATS":"03M494","Building_C":"M490","Location_C":"M494","Name":"High School of Arts and Technology","Geographic":3,"Latitude":40.774890999999997,"Longitude":-73.985607999999999}},{"type":"Feature","id":185,"geometry":{"type":"Point","coordinates":[988236.54352413118,221587.81113913655]},"properties":{"OBJECTID":185,"ATS":"03M541","Building_C":"M490","Location_C":"M541","Name":"Manhattan / Hunter Science High School","Geographic":3,"Latitude":40.774890999999997,"Longitude":-73.985607999999999}},{"type":"Feature","id":186,"geometry":{"type":"Point","coordinates":[993448.52489805222,229693.83954647183]},"properties":{"OBJECTID":186,"ATS":"03M610","Building_C":"M506","Location_C":"M610","Name":"Young Women's Leadership School","Geographic":3,"Latitude":40.797136000000002,"Longitude":-73.966779000000002}},{"type":"Feature","id":187,"geometry":{"type":"Point","coordinates":[988965.50105571747,221720.92340572178]},"properties":{"OBJECTID":187,"ATS":"03M859","Building_C":"M932","Location_C":"M859","Name":"Special Music School","Geographic":3,"Latitude":40.775255999999999,"Longitude":-73.982975999999994}},{"type":"Feature","id":188,"geometry":{"type":"Point","coordinates":[996943.60353779793,231689.7863419801]},"properties":{"OBJECTID":188,"ATS":"03M860","Building_C":"M088","Location_C":"M860","Name":"Frederick Douglass Academy II Secondary School","Geographic":3,"Latitude":40.802610000000001,"Longitude":-73.954151999999993}},{"type":"Feature","id":189,"geometry":{"type":"Point","coordinates":[993677.55134288967,231703.96315088868]},"properties":{"OBJECTID":189,"ATS":"03M862","Building_C":"M165","Location_C":"M862","Name":"Mott Hall II","Geographic":3,"Latitude":40.802652999999999,"Longitude":-73.965948999999995}},{"type":"Feature","id":190,"geometry":{"type":"Point","coordinates":[1001035.4539498836,230965.78877422214]},"properties":{"OBJECTID":190,"ATS":"04M007","Building_C":"M007","Location_C":"M007","Name":"P.S. 007 Samuel Stern","Geographic":4,"Latitude":40.800615999999998,"Longitude":-73.939374000000001}},{"type":"Feature","id":191,"geometry":{"type":"Point","coordinates":[1000231.4427626431,228028.70737805963]},"properties":{"OBJECTID":191,"ATS":"04M012","Building_C":"M117","Location_C":"M012","Name":"Tag Young Scholars","Geographic":4,"Latitude":40.792555999999998,"Longitude":-73.942284999999998}},{"type":"Feature","id":192,"geometry":{"type":"Point","coordinates":[1002595.6683491319,230474.70215797424]},"properties":{"OBJECTID":192,"ATS":"04M037","Building_C":"M045","Location_C":"M037","Name":"River East Elementary","Geographic":4,"Latitude":40.799264999999998,"Longitude":-73.93374}},{"type":"Feature","id":193,"geometry":{"type":"Point","coordinates":[999546.4651299715,226611.73350597918]},"properties":{"OBJECTID":193,"ATS":"04M038","Building_C":"M121","Location_C":"M038","Name":"P.S. 38 Roberto Clemente","Geographic":4,"Latitude":40.788668000000001,"Longitude":-73.944761999999997}},{"type":"Feature","id":194,"geometry":{"type":"Point","coordinates":[1000420.5411377251,229722.62459389865]},"properties":{"OBJECTID":194,"ATS":"04M057","Building_C":"M057","Location_C":"M057","Name":"James Weldon Johnson","Geographic":4,"Latitude":40.797204999999998,"Longitude":-73.941597999999999}},{"type":"Feature","id":195,"geometry":{"type":"Point","coordinates":[998801.51911330223,227622.66750772297]},"properties":{"OBJECTID":195,"ATS":"04M072","Building_C":"M072","Location_C":"M072","Name":"The Lexington Academy","Geographic":4,"Latitude":40.791443999999998,"Longitude":-73.947450000000003}},{"type":"Feature","id":196,"geometry":{"type":"Point","coordinates":[1000322.6233545542,228322.7858581394]},"properties":{"OBJECTID":196,"ATS":"04M083","Building_C":"M083","Location_C":"M083","Name":"P.S. 083 Luis Munoz Rivera","Geographic":4,"Latitude":40.793362999999999,"Longitude":-73.941954999999993}},{"type":"Feature","id":197,"geometry":{"type":"Point","coordinates":[1001643.4084426314,230628.84292581677]},"properties":{"OBJECTID":197,"ATS":"04M096","Building_C":"M096","Location_C":"M096","Name":"P.S. 096 Joseph Lanzetta","Geographic":4,"Latitude":40.799689999999998,"Longitude":-73.937179}},{"type":"Feature","id":198,"geometry":{"type":"Point","coordinates":[1001301.5728402138,228919.8699658066]},"properties":{"OBJECTID":198,"ATS":"04M102","Building_C":"M102","Location_C":"M102","Name":"P.S. 102 Jacques Cartier","Geographic":4,"Latitude":40.795000000000002,"Longitude":-73.938417999999999}},{"type":"Feature","id":199,"geometry":{"type":"Point","coordinates":[998688.59643888474,228929.83254431188]},"properties":{"OBJECTID":199,"ATS":"04M108","Building_C":"M108","Location_C":"M108","Name":"P.S. 108 Assemblyman Angelo Del Toro Educational C","Geographic":4,"Latitude":40.795031999999999,"Longitude":-73.947855000000004}},{"type":"Feature","id":200,"geometry":{"type":"Point","coordinates":[1003485.6541019678,229609.73210313916]},"properties":{"OBJECTID":200,"ATS":"04M112","Building_C":"M112","Location_C":"M112","Name":"P.S. 112 Jose Celso Barbosa","Geographic":4,"Latitude":40.796889,"Longitude":-73.930527999999995}},{"type":"Feature","id":201,"geometry":{"type":"Point","coordinates":[1001217.4079823047,226928.72270140052]},"properties":{"OBJECTID":201,"ATS":"04M146","Building_C":"M146","Location_C":"M146","Name":"P.S. 146 Ann M. Short","Geographic":4,"Latitude":40.789535000000001,"Longitude":-73.938727}},{"type":"Feature","id":202,"geometry":{"type":"Point","coordinates":[1001999.4867987186,229833.75790180266]},"properties":{"OBJECTID":202,"ATS":"04M155","Building_C":"M155","Location_C":"M155","Name":"P.S. 155 William Paca","Geographic":4,"Latitude":40.797507000000003,"Longitude":-73.935895000000002}},{"type":"Feature","id":203,"geometry":{"type":"Point","coordinates":[997700.66698430479,227934.63112264872]},"properties":{"OBJECTID":203,"ATS":"04M171","Building_C":"M171","Location_C":"M171","Name":"P.S. 171 Patrick Henry","Geographic":4,"Latitude":40.792301999999999,"Longitude":-73.951425}},{"type":"Feature","id":204,"geometry":{"type":"Point","coordinates":[1000322.6233545542,228322.7858581394]},"properties":{"OBJECTID":204,"ATS":"04M182","Building_C":"M083","Location_C":"M182","Name":"The Bilingual Bicultural School","Geographic":4,"Latitude":40.793362999999999,"Longitude":-73.941954999999993}},{"type":"Feature","id":205,"geometry":{"type":"Point","coordinates":[1003485.6541019678,229609.73210313916]},"properties":{"OBJECTID":205,"ATS":"04M206","Building_C":"M206","Location_C":"M206","Name":"P.S. 206 Jose Celso Barbosa","Geographic":4,"Latitude":40.796889,"Longitude":-73.930527999999995}},{"type":"Feature","id":206,"geometry":{"type":"Point","coordinates":[1000269.5083032995,225314.80598172545]},"properties":{"OBJECTID":206,"ATS":"04M224","Building_C":"M099","Location_C":"M224","Name":"M.S. 224 Manhattan East School for Arts & Academic","Geographic":4,"Latitude":40.785107000000004,"Longitude":-73.942154000000002}},{"type":"Feature","id":207,"geometry":{"type":"Point","coordinates":[999302.42821647227,224951.67416206002]},"properties":{"OBJECTID":207,"ATS":"04M310","Building_C":"M646","Location_C":"M310","Name":"The Judith S. Kaye School","Geographic":4,"Latitude":40.784112,"Longitude":-73.945646999999994}},{"type":"Feature","id":208,"geometry":{"type":"Point","coordinates":[1000231.4427626431,228028.70737805963]},"properties":{"OBJECTID":208,"ATS":"04M372","Building_C":"M117","Location_C":"M372","Name":"Esperanza Preparatory Academy","Geographic":4,"Latitude":40.792555999999998,"Longitude":-73.942284999999998}},{"type":"Feature","id":209,"geometry":{"type":"Point","coordinates":[999604.56442321837,229318.77599214017]},"properties":{"OBJECTID":209,"ATS":"04M375","Building_C":"M101","Location_C":"M375","Name":"Mosaic Preparatory Academy","Geographic":4,"Latitude":40.796098000000001,"Longitude":-73.944546000000003}},{"type":"Feature","id":210,"geometry":{"type":"Point","coordinates":[1001999.4867987186,229833.75790180266]},"properties":{"OBJECTID":210,"ATS":"04M377","Building_C":"M155","Location_C":"M377","Name":"Renaissance School of the Arts","Geographic":4,"Latitude":40.797507000000003,"Longitude":-73.935895000000002}},{"type":"Feature","id":211,"geometry":{"type":"Point","coordinates":[1002838.5156324655,228623.7022510618]},"properties":{"OBJECTID":211,"ATS":"04M435","Building_C":"M435","Location_C":"M435","Name":"Manhattan Center for Science and Mathematics","Geographic":4,"Latitude":40.794184000000001,"Longitude":-73.932867999999999}},{"type":"Feature","id":212,"geometry":{"type":"Point","coordinates":[999731.64225305617,227166.73206789792]},"properties":{"OBJECTID":212,"ATS":"04M495","Building_C":"M495","Location_C":"M495","Name":"Park East High School","Geographic":4,"Latitude":40.790191,"Longitude":-73.944091999999998}},{"type":"Feature","id":213,"geometry":{"type":"Point","coordinates":[998513.62434788048,228425.85422156751]},"properties":{"OBJECTID":213,"ATS":"04M497","Building_C":"M013","Location_C":"M497","Name":"Central Park East I","Geographic":4,"Latitude":40.793649000000002,"Longitude":-73.948487999999998}},{"type":"Feature","id":214,"geometry":{"type":"Point","coordinates":[998878.44743713737,228164.84358872473]},"properties":{"OBJECTID":214,"ATS":"04M505","Building_C":"M895","Location_C":"M505","Name":"Edward A. Reynolds West Side High School","Geographic":4,"Latitude":40.792932,"Longitude":-73.947170999999997}},{"type":"Feature","id":215,"geometry":{"type":"Point","coordinates":[998513.62434788048,228425.85422156751]},"properties":{"OBJECTID":215,"ATS":"04M555","Building_C":"M013","Location_C":"M555","Name":"Central Park East High School","Geographic":4,"Latitude":40.793649000000002,"Longitude":-73.948487999999998}},{"type":"Feature","id":216,"geometry":{"type":"Point","coordinates":[998959.51420414448,227812.94534239173]},"properties":{"OBJECTID":216,"ATS":"04M680","Building_C":"M107","Location_C":"M680","Name":"Heritage School, The","Geographic":4,"Latitude":40.791966000000002,"Longitude":-73.946878999999996}},{"type":"Feature","id":217,"geometry":{"type":"Point","coordinates":[1002838.5156324655,228623.7022510618]},"properties":{"OBJECTID":217,"ATS":"04M825","Building_C":"M435","Location_C":"M825","Name":"Isaac Newton Middle School for Math & Science","Geographic":4,"Latitude":40.794184000000001,"Longitude":-73.932867999999999}},{"type":"Feature","id":218,"geometry":{"type":"Point","coordinates":[1000611.4016483873,225479.71313223243]},"properties":{"OBJECTID":218,"ATS":"04M964","Building_C":"M050","Location_C":"M964","Name":"Central Park East II","Geographic":4,"Latitude":40.785558999999999,"Longitude":-73.940918999999994}},{"type":"Feature","id":219,"geometry":{"type":"Point","coordinates":[1002117.4639249742,232801.71817322075]},"properties":{"OBJECTID":219,"ATS":"05M030","Building_C":"M030","Location_C":"M030","Name":"P.S. 030 Hernandez/Hughes","Geographic":5,"Latitude":40.805653,"Longitude":-73.935461000000004}},{"type":"Feature","id":220,"geometry":{"type":"Point","coordinates":[996040.45639397204,234638.62493248284]},"properties":{"OBJECTID":220,"ATS":"05M036","Building_C":"M036","Location_C":"M036","Name":"P.S. 036 Margaret Douglas","Geographic":5,"Latitude":40.810704999999999,"Longitude":-73.957408999999998}},{"type":"Feature","id":221,"geometry":{"type":"Point","coordinates":[1001878.6379590482,241817.76772639155]},"properties":{"OBJECTID":221,"ATS":"05M046","Building_C":"M046","Location_C":"M046","Name":"P.S. 046 Arthur Tappan","Geographic":5,"Latitude":40.830399999999997,"Longitude":-73.936300000000003}},{"type":"Feature","id":222,"geometry":{"type":"Point","coordinates":[999242.59533089399,236174.97520622611]},"properties":{"OBJECTID":222,"ATS":"05M092","Building_C":"M092","Location_C":"M092","Name":"P.S. 092 Mary McLeod Bethune","Geographic":5,"Latitude":40.814917000000001,"Longitude":-73.945837999999995}},{"type":"Feature","id":223,"geometry":{"type":"Point","coordinates":[999597.61824288964,238105.81386423111]},"properties":{"OBJECTID":223,"ATS":"05M123","Building_C":"M123","Location_C":"M123","Name":"P.S. 123 Mahalia Jackson","Geographic":5,"Latitude":40.820216000000002,"Longitude":-73.944551000000004}},{"type":"Feature","id":224,"geometry":{"type":"Point","coordinates":[996507.43610306084,234670.9178468883]},"properties":{"OBJECTID":224,"ATS":"05M125","Building_C":"M125","Location_C":"M125","Name":"P.S. 125 Ralph Bunche","Geographic":5,"Latitude":40.810792999999997,"Longitude":-73.955721999999994}},{"type":"Feature","id":225,"geometry":{"type":"Point","coordinates":[997531.40124672651,236172.88465923071]},"properties":{"OBJECTID":225,"ATS":"05M129","Building_C":"M129","Location_C":"M129","Name":"P.S. 129 John H. Finley","Geographic":5,"Latitude":40.814914000000002,"Longitude":-73.952020000000005}},{"type":"Feature","id":226,"geometry":{"type":"Point","coordinates":[1001087.4302238822,234262.69491006434]},"properties":{"OBJECTID":226,"ATS":"05M133","Building_C":"M133","Location_C":"M133","Name":"P.S. 133 Fred R Moore","Geographic":5,"Latitude":40.809665000000003,"Longitude":-73.939177999999998}},{"type":"Feature","id":227,"geometry":{"type":"Point","coordinates":[998878.64527139068,237016.73336522281]},"properties":{"OBJECTID":227,"ATS":"05M148","Building_C":"M136","Location_C":"M148","Name":"Eagle Academy for Young Men of Harlem","Geographic":5,"Latitude":40.817228,"Longitude":-73.947151000000005}},{"type":"Feature","id":228,"geometry":{"type":"Point","coordinates":[998395.41034546494,234564.83111681044]},"properties":{"OBJECTID":228,"ATS":"05M154","Building_C":"M154","Location_C":"M154","Name":"P.S. 154 Harriet Tubman","Geographic":5,"Latitude":40.810499,"Longitude":-73.948902000000004}},{"type":"Feature","id":229,"geometry":{"type":"Point","coordinates":[1001216.5510286391,233298.75326839089]},"properties":{"OBJECTID":229,"ATS":"05M157","Building_C":"M501","Location_C":"M157","Name":"The Urban Assembly School for Global Commerce","Geographic":5,"Latitude":40.807018999999997,"Longitude":-73.938714000000004}},{"type":"Feature","id":230,"geometry":{"type":"Point","coordinates":[997404.62459738553,237194.77762855589]},"properties":{"OBJECTID":230,"ATS":"05M161","Building_C":"M161","Location_C":"M161","Name":"P.S. 161 Pedro Albizu Campos","Geographic":5,"Latitude":40.817718999999997,"Longitude":-73.952476000000004}},{"type":"Feature","id":231,"geometry":{"type":"Point","coordinates":[1000109.6674156338,235982.79284781218]},"properties":{"OBJECTID":231,"ATS":"05M175","Building_C":"M175","Location_C":"M175","Name":"P.S. 175 Henry H Garnet","Geographic":5,"Latitude":40.814388000000001,"Longitude":-73.942706000000001}},{"type":"Feature","id":232,"geometry":{"type":"Point","coordinates":[1000549.5008535534,238467.85644721985]},"properties":{"OBJECTID":232,"ATS":"05M194","Building_C":"M194","Location_C":"M194","Name":"P.S. 194 Countee Cullen","Geographic":5,"Latitude":40.821207999999999,"Longitude":-73.941111000000006}},{"type":"Feature","id":233,"geometry":{"type":"Point","coordinates":[1001316.4796345532,235671.74097648263]},"properties":{"OBJECTID":233,"ATS":"05M197","Building_C":"M197","Location_C":"M197","Name":"P.S. 197 John B. Russwurm","Geographic":5,"Latitude":40.813532000000002,"Longitude":-73.938346999999993}},{"type":"Feature","id":234,"geometry":{"type":"Point","coordinates":[1002033.6645518839,239481.75468190014]},"properties":{"OBJECTID":234,"ATS":"05M200","Building_C":"M200","Location_C":"M200","Name":"P.S. 200- The James McCune Smith School","Geographic":5,"Latitude":40.823988,"Longitude":-73.935745999999995}},{"type":"Feature","id":235,"geometry":{"type":"Point","coordinates":[1000867.570427388,233543.70914331079]},"properties":{"OBJECTID":235,"ATS":"05M285","Building_C":"M911","Location_C":"M285","Name":"Harlem Renaissance High School","Geographic":5,"Latitude":40.807692000000003,"Longitude":-73.939974000000007}},{"type":"Feature","id":236,"geometry":{"type":"Point","coordinates":[996562.43697729707,236475.86502438784]},"properties":{"OBJECTID":236,"ATS":"05M286","Building_C":"M043","Location_C":"M286","Name":"Urban Assembly Academy for Future Leaders","Geographic":5,"Latitude":40.815747000000002,"Longitude":-73.955520000000007}},{"type":"Feature","id":237,"geometry":{"type":"Point","coordinates":[998878.64527139068,237016.73336522281]},"properties":{"OBJECTID":237,"ATS":"05M304","Building_C":"M136","Location_C":"M304","Name":"Mott Hall High School","Geographic":5,"Latitude":40.817228,"Longitude":-73.947151000000005}},{"type":"Feature","id":238,"geometry":{"type":"Point","coordinates":[1001455.5794219673,240152.80977022648]},"properties":{"OBJECTID":238,"ATS":"05M318","Building_C":"M371","Location_C":"M318","Name":"Thurgood Marshall Academy Lower School","Geographic":5,"Latitude":40.825831000000001,"Longitude":-73.937832999999998}},{"type":"Feature","id":239,"geometry":{"type":"Point","coordinates":[996507.43610306084,234670.9178468883]},"properties":{"OBJECTID":239,"ATS":"05M362","Building_C":"M125","Location_C":"M362","Name":"Columbia Secondary School","Geographic":5,"Latitude":40.810792999999997,"Longitude":-73.955721999999994}},{"type":"Feature","id":240,"geometry":{"type":"Point","coordinates":[996562.43697729707,236475.86502438784]},"properties":{"OBJECTID":240,"ATS":"05M369","Building_C":"M043","Location_C":"M369","Name":"Urban Assembly School for the Performing Arts","Geographic":5,"Latitude":40.815747000000002,"Longitude":-73.955520000000007}},{"type":"Feature","id":241,"geometry":{"type":"Point","coordinates":[997531.40124672651,236172.88465923071]},"properties":{"OBJECTID":241,"ATS":"05M371","Building_C":"M129","Location_C":"M371","Name":"School of Earth Exploration and Discovery Harlem (","Geographic":5,"Latitude":40.814914000000002,"Longitude":-73.952020000000005}},{"type":"Feature","id":242,"geometry":{"type":"Point","coordinates":[1002033.6645518839,239481.75468190014]},"properties":{"OBJECTID":242,"ATS":"05M499","Building_C":"M010","Location_C":"M499","Name":"Frederick Douglass Academy","Geographic":5,"Latitude":40.823988,"Longitude":-73.935745999999995}},{"type":"Feature","id":243,"geometry":{"type":"Point","coordinates":[996203.53218330443,237949.78891381621]},"properties":{"OBJECTID":243,"ATS":"05M514","Building_C":"M195","Location_C":"M514","Name":"New Design Middle School","Geographic":5,"Latitude":40.819792999999997,"Longitude":-73.956813999999994}},{"type":"Feature","id":244,"geometry":{"type":"Point","coordinates":[997172.87046772242,235266.95208789408]},"properties":{"OBJECTID":244,"ATS":"05M517","Building_C":"M916","Location_C":"M517","Name":"Teachers College Community School","Geographic":5,"Latitude":40.812427999999997,"Longitude":-73.953316999999998}},{"type":"Feature","id":245,"geometry":{"type":"Point","coordinates":[999668.52066013217,236291.82963131368]},"properties":{"OBJECTID":245,"ATS":"05M670","Building_C":"M970","Location_C":"M670","Name":"Thurgood Marshall Academy for Learning and Social","Geographic":5,"Latitude":40.815237000000003,"Longitude":-73.944299000000001}},{"type":"Feature","id":246,"geometry":{"type":"Point","coordinates":[997991.46135021746,238101.93559114635]},"properties":{"OBJECTID":246,"ATS":"05M692","Building_C":"M812","Location_C":"M692","Name":"High School for Mathematics, Science and Engineeri","Geographic":6,"Latitude":40.820208000000001,"Longitude":-73.950354000000004}},{"type":"Feature","id":247,"geometry":{"type":"Point","coordinates":[1000412.4975186437,243447.88224831223]},"properties":{"OBJECTID":247,"ATS":"06M004","Building_C":"M004","Location_C":"M004","Name":"P.S. 004 Duke Ellington","Geographic":6,"Latitude":40.834876999999999,"Longitude":-73.941593999999995}},{"type":"Feature","id":248,"geometry":{"type":"Point","coordinates":[1005750.5360551327,251742.90076322854]},"properties":{"OBJECTID":248,"ATS":"06M005","Building_C":"M005","Location_C":"M005","Name":"P.S. 005 Ellen Lurie","Geographic":6,"Latitude":40.857633,"Longitude":-73.922276999999994}},{"type":"Feature","id":249,"geometry":{"type":"Point","coordinates":[1001789.4127438068,245036.62086872756]},"properties":{"OBJECTID":249,"ATS":"06M008","Building_C":"M008","Location_C":"M008","Name":"P.S. 008 Luis Belliard","Geographic":6,"Latitude":40.839235000000002,"Longitude":-73.936614000000006}},{"type":"Feature","id":250,"geometry":{"type":"Point","coordinates":[1005971.5789201409,252955.61716981232]},"properties":{"OBJECTID":250,"ATS":"06M018","Building_C":"M502","Location_C":"M018","Name":"P.S. 018 Park Terrace","Geographic":6,"Latitude":40.860961000000003,"Longitude":-73.921474000000003}},{"type":"Feature","id":251,"geometry":{"type":"Point","coordinates":[1000294.5676363856,242264.80193731189]},"properties":{"OBJECTID":251,"ATS":"06M028","Building_C":"M028","Location_C":"M028","Name":"P.S. 028 Wright Brothers","Geographic":6,"Latitude":40.831629999999997,"Longitude":-73.942023000000006}},{"type":"Feature","id":252,"geometry":{"type":"Point","coordinates":[1002611.5141179711,250122.65662840009]},"properties":{"OBJECTID":252,"ATS":"06M048","Building_C":"M048","Location_C":"M048","Name":"P.S. 048 P.O. Michael J. Buczek","Geographic":6,"Latitude":40.853192999999997,"Longitude":-73.933628999999996}},{"type":"Feature","id":253,"geometry":{"type":"Point","coordinates":[1004866.4761434644,254628.78869222105]},"properties":{"OBJECTID":253,"ATS":"06M052","Building_C":"M052","Location_C":"M052","Name":"Harold O. Levy School","Geographic":6,"Latitude":40.865555999999998,"Longitude":-73.925464000000005}},{"type":"Feature","id":254,"geometry":{"type":"Point","coordinates":[1006981.6585928947,255426.76216189563]},"properties":{"OBJECTID":254,"ATS":"06M098","Building_C":"M098","Location_C":"M098","Name":"P.S. 098 Shorac Kappock","Geographic":6,"Latitude":40.867741000000002,"Longitude":-73.917814000000007}},{"type":"Feature","id":255,"geometry":{"type":"Point","coordinates":[1002519.5615459681,249163.64903198183]},"properties":{"OBJECTID":255,"ATS":"06M103","Building_C":"M132","Location_C":"M103","Name":"Dos Puentes Elementary School","Geographic":6,"Latitude":40.850560999999999,"Longitude":-73.933964000000003}},{"type":"Feature","id":256,"geometry":{"type":"Point","coordinates":[1002195.4148845524,247543.92490923405]},"properties":{"OBJECTID":256,"ATS":"06M115","Building_C":"M115","Location_C":"M115","Name":"P.S. 115 Alexander Humboldt","Geographic":6,"Latitude":40.846116000000002,"Longitude":-73.935140000000004}},{"type":"Feature","id":257,"geometry":{"type":"Point","coordinates":[1001211.4785322249,245690.92402206361]},"properties":{"OBJECTID":257,"ATS":"06M128","Building_C":"M128","Location_C":"M128","Name":"P.S. 128 Audubon","Geographic":6,"Latitude":40.841031999999998,"Longitude":-73.938700999999995}},{"type":"Feature","id":258,"geometry":{"type":"Point","coordinates":[1002519.5615459681,249163.64903198183]},"properties":{"OBJECTID":258,"ATS":"06M132","Building_C":"M132","Location_C":"M132","Name":"P.S. 132 Juan Pablo Duarte","Geographic":6,"Latitude":40.850560999999999,"Longitude":-73.933964000000003}},{"type":"Feature","id":259,"geometry":{"type":"Point","coordinates":[1003342.4139028937,248708.8608995527]},"properties":{"OBJECTID":259,"ATS":"06M143","Building_C":"M143","Location_C":"M143","Name":"J.H.S. 143 Eleanor Roosevelt","Geographic":6,"Latitude":40.849311,"Longitude":-73.930991000000006}},{"type":"Feature","id":260,"geometry":{"type":"Point","coordinates":[1004283.4930574745,252532.62293705344]},"properties":{"OBJECTID":260,"ATS":"06M152","Building_C":"M152","Location_C":"M152","Name":"P.S. 152 Dyckman Valley","Geographic":6,"Latitude":40.859803999999997,"Longitude":-73.927577999999997}},{"type":"Feature","id":261,"geometry":{"type":"Point","coordinates":[998752.61796438694,240399.88407923281]},"properties":{"OBJECTID":261,"ATS":"06M153","Building_C":"M153","Location_C":"M153","Name":"P.S. 153 Adam Clayton Powell","Geographic":6,"Latitude":40.826514000000003,"Longitude":-73.947598999999997}},{"type":"Feature","id":262,"geometry":{"type":"Point","coordinates":[1000910.4332025498,247303.63766014576]},"properties":{"OBJECTID":262,"ATS":"06M173","Building_C":"M173","Location_C":"M173","Name":"P.S. 173","Geographic":6,"Latitude":40.845458999999998,"Longitude":-73.939785000000001}},{"type":"Feature","id":263,"geometry":{"type":"Point","coordinates":[1004083.6676697135,252326.97144547105]},"properties":{"OBJECTID":263,"ATS":"06M178","Building_C":"M178","Location_C":"M178","Name":"Professor Juan Bosch Public School","Geographic":6,"Latitude":40.85924,"Longitude":-73.928301000000005}},{"type":"Feature","id":264,"geometry":{"type":"Point","coordinates":[1001722.4115654677,251231.7738327235]},"properties":{"OBJECTID":264,"ATS":"06M187","Building_C":"M187","Location_C":"M187","Name":"P.S./I.S. 187 Hudson Cliffs","Geographic":6,"Latitude":40.856239000000002,"Longitude":-73.936840000000004}},{"type":"Feature","id":265,"geometry":{"type":"Point","coordinates":[1004155.5061087161,250069.953649804]},"properties":{"OBJECTID":265,"ATS":"06M189","Building_C":"M189","Location_C":"M189","Name":"P.S. 189","Geographic":6,"Latitude":40.853045000000002,"Longitude":-73.928048000000004}},{"type":"Feature","id":266,"geometry":{"type":"Point","coordinates":[997529.45407213271,238211.70768131316]},"properties":{"OBJECTID":266,"ATS":"06M192","Building_C":"M192","Location_C":"M192","Name":"P.S. 192 Jacob H. Schiff","Geographic":6,"Latitude":40.820509999999999,"Longitude":-73.952022999999997}},{"type":"Feature","id":267,"geometry":{"type":"Point","coordinates":[997529.45407213271,238211.70768131316]},"properties":{"OBJECTID":267,"ATS":"06M209","Building_C":"M192","Location_C":"M209","Name":"Hamilton Grange Middle School","Geographic":6,"Latitude":40.820509999999999,"Longitude":-73.952022999999997}},{"type":"Feature","id":268,"geometry":{"type":"Point","coordinates":[999563.53596197069,241671.91762439907]},"properties":{"OBJECTID":268,"ATS":"06M210","Building_C":"M093","Location_C":"M210","Name":"P.S./I.S. 210 - Twenty-first Century Academy for C","Geographic":6,"Latitude":40.830004000000002,"Longitude":-73.944665999999998}},{"type":"Feature","id":269,"geometry":{"type":"Point","coordinates":[1004866.4761434644,254628.78869222105]},"properties":{"OBJECTID":269,"ATS":"06M211","Building_C":"M052","Location_C":"M211","Name":"Inwood Early College for Health and Information Te","Geographic":6,"Latitude":40.865555999999998,"Longitude":-73.925464000000005}},{"type":"Feature","id":270,"geometry":{"type":"Point","coordinates":[1001610.4213038832,244215.6402272284]},"properties":{"OBJECTID":270,"ATS":"06M223","Building_C":"M164","Location_C":"M223","Name":"The Mott Hall School","Geographic":6,"Latitude":40.836981999999999,"Longitude":-73.937263000000002}},{"type":"Feature","id":271,"geometry":{"type":"Point","coordinates":[1005971.5789201409,252955.61716981232]},"properties":{"OBJECTID":271,"ATS":"06M278","Building_C":"M502","Location_C":"M278","Name":"Paula Hedbavny School","Geographic":6,"Latitude":40.860961000000003,"Longitude":-73.921474000000003}},{"type":"Feature","id":272,"geometry":{"type":"Point","coordinates":[1003590.5128161311,252949.95641997457]},"properties":{"OBJECTID":272,"ATS":"06M293","Building_C":"M218","Location_C":"M293","Name":"City College Academy of the Arts","Geographic":6,"Latitude":40.860951,"Longitude":-73.930081999999999}},{"type":"Feature","id":273,"geometry":{"type":"Point","coordinates":[1005321.4850759655,254929.75987505913]},"properties":{"OBJECTID":273,"ATS":"06M311","Building_C":"M176","Location_C":"M311","Name":"Amistad Dual Language School","Geographic":6,"Latitude":40.866380999999997,"Longitude":-73.923817999999997}},{"type":"Feature","id":274,"geometry":{"type":"Point","coordinates":[1005321.4850759655,254929.75987505913]},"properties":{"OBJECTID":274,"ATS":"06M314","Building_C":"M176","Location_C":"M314","Name":"Muscota","Geographic":6,"Latitude":40.866380999999997,"Longitude":-73.923817999999997}},{"type":"Feature","id":275,"geometry":{"type":"Point","coordinates":[1002010.5231939703,245001.80564963818]},"properties":{"OBJECTID":275,"ATS":"06M319","Building_C":"M090","Location_C":"M319","Name":"M.S. 319 - Maria Teresa","Geographic":6,"Latitude":40.839139000000003,"Longitude":-73.935815000000005}},{"type":"Feature","id":276,"geometry":{"type":"Point","coordinates":[1003590.5128161311,252949.95641997457]},"properties":{"OBJECTID":276,"ATS":"06M322","Building_C":"M218","Location_C":"M322","Name":"Middle School 322","Geographic":6,"Latitude":40.860951,"Longitude":-73.930081999999999}},{"type":"Feature","id":277,"geometry":{"type":"Point","coordinates":[1002010.5231939703,245001.80564963818]},"properties":{"OBJECTID":277,"ATS":"06M324","Building_C":"M090","Location_C":"M324","Name":"M.S. 324 - Patria Mirabal","Geographic":6,"Latitude":40.839139000000003,"Longitude":-73.935815000000005}},{"type":"Feature","id":278,"geometry":{"type":"Point","coordinates":[1001610.4213038832,244215.6402272284]},"properties":{"OBJECTID":278,"ATS":"06M328","Building_C":"M164","Location_C":"M328","Name":"Community Math & Science Prep","Geographic":6,"Latitude":40.836981999999999,"Longitude":-73.937263000000002}},{"type":"Feature","id":279,"geometry":{"type":"Point","coordinates":[1000279.9567732215,243017.14787356555]},"properties":{"OBJECTID":279,"ATS":"06M346","Building_C":"M814","Location_C":"M346","Name":"Community Health Academy of the Heights","Geographic":6,"Latitude":40.833694999999999,"Longitude":-73.942074000000005}},{"type":"Feature","id":280,"geometry":{"type":"Point","coordinates":[1003342.4139028937,248708.8608995527]},"properties":{"OBJECTID":280,"ATS":"06M348","Building_C":"M143","Location_C":"M348","Name":"Washington Heights Expeditionary Learning School","Geographic":6,"Latitude":40.849311,"Longitude":-73.930991000000006}},{"type":"Feature","id":281,"geometry":{"type":"Point","coordinates":[1005926.6472514719,254636.63644556701]},"properties":{"OBJECTID":281,"ATS":"06M366","Building_C":"M263","Location_C":"M366","Name":"Washington Heights Academy","Geographic":6,"Latitude":40.865575,"Longitude":-73.921631000000005}},{"type":"Feature","id":282,"geometry":{"type":"Point","coordinates":[998752.61796438694,240399.88407923281]},"properties":{"OBJECTID":282,"ATS":"06M368","Building_C":"M153","Location_C":"M368","Name":"The William Lynch School","Geographic":6,"Latitude":40.826514000000003,"Longitude":-73.947598999999997}},{"type":"Feature","id":283,"geometry":{"type":"Point","coordinates":[1004866.4761434644,254628.78869222105]},"properties":{"OBJECTID":283,"ATS":"06M423","Building_C":"M052","Location_C":"M423","Name":"High School for Excellence and Innovation","Geographic":6,"Latitude":40.865555999999998,"Longitude":-73.925464000000005}},{"type":"Feature","id":284,"geometry":{"type":"Point","coordinates":[1004704.4019925594,251340.8585883081]},"properties":{"OBJECTID":284,"ATS":"06M462","Building_C":"M465","Location_C":"M462","Name":"The College Academy","Geographic":6,"Latitude":40.856532000000001,"Longitude":-73.926060000000007}},{"type":"Feature","id":285,"geometry":{"type":"Point","coordinates":[1004704.4019925594,251340.8585883081]},"properties":{"OBJECTID":285,"ATS":"06M463","Building_C":"M465","Location_C":"M463","Name":"High School for Media and Communications","Geographic":6,"Latitude":40.856532000000001,"Longitude":-73.926060000000007}},{"type":"Feature","id":286,"geometry":{"type":"Point","coordinates":[1004704.4019925594,251340.8585883081]},"properties":{"OBJECTID":286,"ATS":"06M467","Building_C":"M465","Location_C":"M467","Name":"High School for Law and Public Service","Geographic":6,"Latitude":40.856532000000001,"Longitude":-73.926060000000007}},{"type":"Feature","id":287,"geometry":{"type":"Point","coordinates":[1004704.4019925594,251340.8585883081]},"properties":{"OBJECTID":287,"ATS":"06M468","Building_C":"M465","Location_C":"M468","Name":"High School for Health Careers and Sciences","Geographic":6,"Latitude":40.856532000000001,"Longitude":-73.926060000000007}},{"type":"Feature","id":288,"geometry":{"type":"Point","coordinates":[1001211.4785322249,245690.92402206361]},"properties":{"OBJECTID":288,"ATS":"06M513","Building_C":"M128","Location_C":"M513","Name":"Castle Bridge School","Geographic":6,"Latitude":40.841031999999998,"Longitude":-73.938700999999995}},{"type":"Feature","id":289,"geometry":{"type":"Point","coordinates":[1002322.5501289666,249207.95078064501]},"properties":{"OBJECTID":289,"ATS":"06M528","Building_C":"M528","Location_C":"M528","Name":"I.S. 528 Bea Fuller Rodgers School","Geographic":6,"Latitude":40.850682999999997,"Longitude":-73.934675999999996}},{"type":"Feature","id":290,"geometry":{"type":"Point","coordinates":[998109.44897513092,237479.71669122577]},"properties":{"OBJECTID":290,"ATS":"06M540","Building_C":"M540","Location_C":"M540","Name":"A. Philip Randolph Campus High School","Geographic":6,"Latitude":40.8185,"Longitude":-73.949928999999997}},{"type":"Feature","id":291,"geometry":{"type":"Point","coordinates":[1001323.1853298098,244622.76539722085]},"properties":{"OBJECTID":291,"ATS":"06M552","Building_C":"M876","Location_C":"M552","Name":"Gregorio Luperon High School for Science and Mathe","Geographic":6,"Latitude":40.838099999999997,"Longitude":-73.938299999999998}},{"type":"Feature","id":292,"geometry":{"type":"Point","coordinates":[1006494.4584518075,237788.72263489664]},"properties":{"OBJECTID":292,"ATS":"07X001","Building_C":"X001","Location_C":"X001","Name":"P.S. 001 Courtlandt School","Geographic":7,"Latitude":40.819330999999998,"Longitude":-73.919634000000002}},{"type":"Feature","id":293,"geometry":{"type":"Point","coordinates":[1009617.5499746352,235811.62225839496]},"properties":{"OBJECTID":293,"ATS":"07X005","Building_C":"X005","Location_C":"X005","Name":"P.S. 5 Port Morris","Geographic":7,"Latitude":40.813896,"Longitude":-73.908358000000007}},{"type":"Feature","id":294,"geometry":{"type":"Point","coordinates":[1005647.6202504635,236708.79697322845]},"properties":{"OBJECTID":294,"ATS":"07X018","Building_C":"X018","Location_C":"X018","Name":"P.S. 018 John Peter Zenger","Geographic":7,"Latitude":40.816369000000002,"Longitude":-73.922696999999999}},{"type":"Feature","id":295,"geometry":{"type":"Point","coordinates":[1010339.5780581385,235447.68827497959]},"properties":{"OBJECTID":295,"ATS":"07X025","Building_C":"X025","Location_C":"X025","Name":"P.S. 025 Bilingual School","Geographic":7,"Latitude":40.812894999999997,"Longitude":-73.905750999999995}},{"type":"Feature","id":296,"geometry":{"type":"Point","coordinates":[1007383.550833717,238595.83060072362]},"properties":{"OBJECTID":296,"ATS":"07X029","Building_C":"X029","Location_C":"X029","Name":"P.S./M.S. 029 Melrose School","Geographic":7,"Latitude":40.821544000000003,"Longitude":-73.916419000000005}},{"type":"Feature","id":297,"geometry":{"type":"Point","coordinates":[1007111.6297896355,234033.72259896994]},"properties":{"OBJECTID":297,"ATS":"07X030","Building_C":"X030","Location_C":"X030","Name":"P.S. 030 Wilton","Geographic":7,"Latitude":40.809023000000003,"Longitude":-73.917417}},{"type":"Feature","id":298,"geometry":{"type":"Point","coordinates":[1006076.5573847145,238969.88529880345]},"properties":{"OBJECTID":298,"ATS":"07X031","Building_C":"X151","Location_C":"X031","Name":"P.S./M.S. 031 The William Lloyd Garrison","Geographic":7,"Latitude":40.822574000000003,"Longitude":-73.921139999999994}},{"type":"Feature","id":299,"geometry":{"type":"Point","coordinates":[1005956.4378743023,233095.95446139574]},"properties":{"OBJECTID":299,"ATS":"07X043","Building_C":"X043","Location_C":"X043","Name":"P.S. 043 Jonas Bronck","Geographic":7,"Latitude":40.806452,"Longitude":-73.921593000000001}},{"type":"Feature","id":300,"geometry":{"type":"Point","coordinates":[1005640.4004486352,234538.80656255782]},"properties":{"OBJECTID":300,"ATS":"07X049","Building_C":"X049","Location_C":"X049","Name":"P.S. 049 Willis Avenue","Geographic":7,"Latitude":40.810412999999997,"Longitude":-73.922730000000001}},{"type":"Feature","id":301,"geometry":{"type":"Point","coordinates":[1008457.4125311375,233631.70896731317]},"properties":{"OBJECTID":301,"ATS":"07X065","Building_C":"X065","Location_C":"X065","Name":"P.S. 065 Mother Hale Academy","Geographic":7,"Latitude":40.807915999999999,"Longitude":-73.912557000000007}},{"type":"Feature","id":302,"geometry":{"type":"Point","coordinates":[1004885.6424437165,233729.69171097875]},"properties":{"OBJECTID":302,"ATS":"07X154","Building_C":"X154","Location_C":"X154","Name":"P.S. 154 Jonathan D. Hyatt","Geographic":7,"Latitude":40.808194,"Longitude":-73.925459000000004}},{"type":"Feature","id":303,"geometry":{"type":"Point","coordinates":[1009447.4371258914,237823.67335239053]},"properties":{"OBJECTID":303,"ATS":"07X157","Building_C":"X157","Location_C":"X157","Name":"P.S. 157 Grove Hill","Geographic":7,"Latitude":40.819419000000003,"Longitude":-73.908964999999995}},{"type":"Feature","id":304,"geometry":{"type":"Point","coordinates":[1010482.464583382,235911.64207147062]},"properties":{"OBJECTID":304,"ATS":"07X161","Building_C":"X161","Location_C":"X161","Name":"P.S. 161 Juan Ponce De Leon School","Geographic":7,"Latitude":40.814168000000002,"Longitude":-73.905232999999996}},{"type":"Feature","id":305,"geometry":{"type":"Point","coordinates":[1006459.4060284644,234053.88331981003]},"properties":{"OBJECTID":305,"ATS":"07X179","Building_C":"X040","Location_C":"X179","Name":"P.S. 179","Geographic":7,"Latitude":40.809080000000002,"Longitude":-73.919773000000006}},{"type":"Feature","id":306,"geometry":{"type":"Point","coordinates":[1006159.4945548028,235704.77995239198]},"properties":{"OBJECTID":306,"ATS":"07X221","Building_C":"X149","Location_C":"X221","Name":"South Bronx Preparatory: A College Board School","Geographic":7,"Latitude":40.813611999999999,"Longitude":-73.920850999999999}},{"type":"Feature","id":307,"geometry":{"type":"Point","coordinates":[1006159.4945548028,235704.77995239198]},"properties":{"OBJECTID":307,"ATS":"07X223","Building_C":"X149","Location_C":"X223","Name":"The Laboratory School of Finance and Technology: X","Geographic":7,"Latitude":40.813611999999999,"Longitude":-73.920850999999999}},{"type":"Feature","id":308,"geometry":{"type":"Point","coordinates":[1006735.539334476,234503.72789256275]},"properties":{"OBJECTID":308,"ATS":"07X224","Building_C":"X139","Location_C":"X224","Name":"P.S./I.S. 224","Geographic":7,"Latitude":40.810313999999998,"Longitude":-73.918773999999999}},{"type":"Feature","id":309,"geometry":{"type":"Point","coordinates":[1009848.5403262973,234636.88215380907]},"properties":{"OBJECTID":309,"ATS":"07X259","Building_C":"X655","Location_C":"X259","Name":"H.E.R.O. High (Health, Education, and Research Occ","Geographic":7,"Latitude":40.810670999999999,"Longitude":-73.907527999999999}},{"type":"Feature","id":310,"geometry":{"type":"Point","coordinates":[1008091.4198248088,235623.89822439849]},"properties":{"OBJECTID":310,"ATS":"07X277","Building_C":"X027","Location_C":"X277","Name":"P.S. 277","Geographic":7,"Latitude":40.813384999999997,"Longitude":-73.913871999999998}},{"type":"Feature","id":311,"geometry":{"type":"Point","coordinates":[1010437.4981378913,237563.85759906471]},"properties":{"OBJECTID":311,"ATS":"07X296","Building_C":"X184","Location_C":"X296","Name":"South Bronx Academy for Applied Media","Geographic":7,"Latitude":40.818702999999999,"Longitude":-73.905389}},{"type":"Feature","id":312,"geometry":{"type":"Point","coordinates":[1010437.4981378913,237563.85759906471]},"properties":{"OBJECTID":312,"ATS":"07X298","Building_C":"X184","Location_C":"X298","Name":"Academy of Public Relations","Geographic":7,"Latitude":40.818702999999999,"Longitude":-73.905389}},{"type":"Feature","id":313,"geometry":{"type":"Point","coordinates":[1006735.539334476,234503.72789256275]},"properties":{"OBJECTID":313,"ATS":"07X334","Building_C":"X139","Location_C":"X334","Name":"International Community High School","Geographic":7,"Latitude":40.810313999999998,"Longitude":-73.918773999999999}},{"type":"Feature","id":314,"geometry":{"type":"Point","coordinates":[1006735.539334476,234503.72789256275]},"properties":{"OBJECTID":314,"ATS":"07X343","Building_C":"X139","Location_C":"X343","Name":"Academy of Applied Mathematics and Technology","Geographic":7,"Latitude":40.810313999999998,"Longitude":-73.918773999999999}},{"type":"Feature","id":315,"geometry":{"type":"Point","coordinates":[1008597.4975527972,236932.00289164484]},"properties":{"OBJECTID":315,"ATS":"07X359","Building_C":"X487","Location_C":"X359","Name":"Leaders of Excellence, Advocacy and Discovery","Geographic":7,"Latitude":40.816974000000002,"Longitude":-73.912038999999993}},{"type":"Feature","id":316,"geometry":{"type":"Point","coordinates":[1006459.4060284644,234053.88331981003]},"properties":{"OBJECTID":316,"ATS":"07X369","Building_C":"X040","Location_C":"X369","Name":"Young Leaders Elementary School","Geographic":7,"Latitude":40.809080000000002,"Longitude":-73.919773000000006}},{"type":"Feature","id":317,"geometry":{"type":"Point","coordinates":[1010437.4981378913,237563.85759906471]},"properties":{"OBJECTID":317,"ATS":"07X379","Building_C":"X184","Location_C":"X379","Name":"Jill Chaifetz Transfer High School","Geographic":7,"Latitude":40.818702999999999,"Longitude":-73.905389}},{"type":"Feature","id":318,"geometry":{"type":"Point","coordinates":[1006407.4999642968,237538.70837114751]},"properties":{"OBJECTID":318,"ATS":"07X381","Building_C":"X600","Location_C":"X381","Name":"Bronx Haven High School","Geographic":7,"Latitude":40.818644999999997,"Longitude":-73.919949000000003}},{"type":"Feature","id":319,"geometry":{"type":"Point","coordinates":[1003637.437591061,236467.73774406314]},"properties":{"OBJECTID":319,"ATS":"07X427","Building_C":"X884","Location_C":"X427","Name":"Community School for Social Justice","Geographic":7,"Latitude":40.815711999999998,"Longitude":-73.929959999999994}},{"type":"Feature","id":320,"geometry":{"type":"Point","coordinates":[1008709.4838773906,237320.86235013604]},"properties":{"OBJECTID":320,"ATS":"07X473","Building_C":"X470","Location_C":"X473","Name":"Mott Haven Village Preparatory High School","Geographic":7,"Latitude":40.818041000000001,"Longitude":-73.911632999999995}},{"type":"Feature","id":321,"geometry":{"type":"Point","coordinates":[1008709.4838773906,237320.86235013604]},"properties":{"OBJECTID":321,"ATS":"07X495","Building_C":"X470","Location_C":"X495","Name":"University Heights Secondary School","Geographic":7,"Latitude":40.818041000000001,"Longitude":-73.911632999999995}},{"type":"Feature","id":322,"geometry":{"type":"Point","coordinates":[1008598.5490598828,236160.70456548035]},"properties":{"OBJECTID":322,"ATS":"07X500","Building_C":"X162","Location_C":"X500","Name":"Hostos-Lincoln Academy of Science","Geographic":7,"Latitude":40.814857000000003,"Longitude":-73.912037999999995}},{"type":"Feature","id":323,"geometry":{"type":"Point","coordinates":[1006407.4999642968,237538.70837114751]},"properties":{"OBJECTID":323,"ATS":"07X522","Building_C":"X600","Location_C":"X522","Name":"Bronx Design and Construction Academy","Geographic":7,"Latitude":40.818644999999997,"Longitude":-73.919949000000003}},